Address,Price,Date,Url,Lat,Lon,LSOACode,LowerLayerSuperOutputArea,ConstituencyCode
"Alexandra Road, Tipton",170000,2019-09-06,https://www.rightmove.co.uk/property-for-sale/property-72508063.html,52.5299981753065,-2.05788810538692,E01010076,Sandwell 015F,E14001030
"53 Warley Hall Road, Oldbury, B68 9JR",175000,2019-10-13,https://www.rightmove.co.uk/property-for-sale/property-85399199.html,52.4723866699834,-1.99185954790877,E01010027,Sandwell 036D,E14001016
"53 Warley Hall Road, Oldbury, B68 9JR",191000,2019-10-05,https://www.rightmove.co.uk/property-for-sale/property-85399199.html,52.4723866699834,-1.99185954790877,E01010027,Sandwell 036D,E14001016
"Amblecote Avenue, Great Barr, Birmingham",170000,2019-09-06,https://www.rightmove.co.uk/property-for-sale/property-64381761.html,52.5494743604965,-1.89554560178333,E01009225,Birmingham 013B,E14000566
"Acacia Avenue, Kingshurst, Birmingham",200000,2019-10-21,https://www.rightmove.co.uk/property-for-sale/property-65903832.html,52.4964971568475,-1.75544479637417,E01010146,Solihull 004A,E14000812
"Arlington Rd, Warstock, Birmingham, West Midlands, B14",175000,2019-09-27,https://www.rightmove.co.uk/property-for-sale/property-74386291.html,52.4110961095307,-1.87235013183497,E01008942,Birmingham 117A,E14000567
"39 Warley Hall Road, Oldbury, B68 9JR",195000,2019-10-29,https://www.rightmove.co.uk/property-for-sale/property-75088348.html,52.4723866699834,-1.99185954790877,E01010027,Sandwell 036D,E14001016
"Asholme Close, Birmingham, B36",165000,2019-10-27,https://www.rightmove.co.uk/property-for-sale/property-75054031.html,52.5024598465146,-1.82229334321813,E01009082,Birmingham 044A,E14000563
"Alexandra Crescent, West Bromwich, B71",195000,2019-09-15,https://www.rightmove.co.uk/property-for-sale/property-84716597.html,52.5401697536411,-1.98329577282861,E01009950,Sandwell 039D,E14001029
"Addington Way, Tividale, Oldbury, B69 3LZ",175000,2019-09-06,https://www.rightmove.co.uk/property-for-sale/property-73183204.html,52.517151746413,-2.03458744502893,E01010069,Sandwell 016E,E14001030
"Audley Road, Birmingham, West Midlands, B33",170000,2019-09-18,https://www.rightmove.co.uk/property-for-sale/property-65120943.html,52.4878698367479,-1.8055635688147,E01009092,Birmingham 054A,E14000568
"ALEXANDRA CRESCENT, WEST BROMWICH, WEST MIDLANDS, B71 3AG",179950,2019-09-25,https://www.rightmove.co.uk/property-for-sale/property-84017354.html,52.5401697536411,-1.98329577282861,E01009950,Sandwell 039D,E14001029
"Aldershaw Road, Birmingham",190000,2019-09-06,https://www.rightmove.co.uk/property-for-sale/property-81437741.html,52.4582963767699,-1.8077540490319,E01008885,Birmingham 076A,E14000568
"Barn Croft, Birmingham, B32",160000,2019-09-18,https://www.rightmove.co.uk/property-for-sale/property-65130495.html,52.4394820241913,-1.98083247338297,E01008924,Birmingham 101A,E14000560
"Alexandra Road, Birmingham, B21",139995,2019-09-08,https://www.rightmove.co.uk/property-for-sale/property-63903636.html,52.5016807354369,-1.94353550531222,E01033635,Birmingham 039H,E14000564
"Alexandra Road, Tipton",175000,2019-09-06,https://www.rightmove.co.uk/property-for-sale/property-83519384.html,52.5299981753065,-2.05788810538692,E01010076,Sandwell 015F,E14001030
"Abbeyfield Road, Birmingham",165000,2019-10-25,https://www.rightmove.co.uk/property-for-sale/property-65973744.html,52.53981017952,-1.85310544013331,E01009403,Birmingham 020A,E14000561
"36 Spenser Walk, Catshill, Bromsgrove, B61 0NF",170000,2019-09-06,https://www.rightmove.co.uk/property-for-sale/property-78616727.html,52.361167538763,-2.05414191629662,E01032152,Bromsgrove 007D,E14000605
"Alexandra Road, Tipton",185000,2019-09-18,https://www.rightmove.co.uk/property-for-sale/property-84802070.html,52.5299981753065,-2.05788810538692,E01010076,Sandwell 015F,E14001030
"Alexandra Road, Tipton, DY4",170000,2019-10-17,https://www.rightmove.co.uk/property-for-sale/property-85714358.html,52.5302649170555,-2.0636374118262,E01010076,Sandwell 015F,E14001030
"Admington Road, Birmingham, B33",160000,2019-11-06,https://www.rightmove.co.uk/property-for-sale/property-66215031.html,52.469030584112,-1.77708878131743,E01009322,Birmingham 069D,E14000568
"Addison Road, Kings Heath, Birmingham, West Midlands, B14",200000,2019-11-04,https://www.rightmove.co.uk/property-for-sale/property-74238001.html,52.4311620068579,-1.89038291846771,E01009175,Birmingham 104A,E14000562
"39 Warley Hall Road, Oldbury, B68 9JR",200000,2019-10-13,https://www.rightmove.co.uk/property-for-sale/property-85398680.html,52.4723866699834,-1.99185954790877,E01010027,Sandwell 036D,E14001016
"Birmingham Road, Lickey End. Bromsgrove",190000,2019-10-27,https://www.rightmove.co.uk/property-for-sale/property-65980254.html,52.3529895906053,-2.04693776269866,E01032155,Bromsgrove 008E,E14000605
"Allendale Road, Birmingham, B25",180000,2019-09-15,https://www.rightmove.co.uk/property-for-sale/property-82545704.html,52.466686126852,-1.82655873752693,E01008882,Birmingham 066A,E14000568
"Alcester Road South, Kings Heath",165000,2019-09-06,https://www.rightmove.co.uk/property-for-sale/property-72944488.html,52.4086840252098,-1.88735143906689,E01008947,Birmingham 122C,E14000567
"Amberley Grove, Birmingham, B6",170000,2019-09-06,https://www.rightmove.co.uk/property-for-sale/property-60719742.html,52.5181725886504,-1.87778805474864,E01008915,Birmingham 030A,E14000566
"Blakemere Avenue, Birmingham, B25",185000,2019-10-21,https://www.rightmove.co.uk/property-for-sale/property-60836472.html,52.4689061663455,-1.80873831910469,E01009521,Birmingham 067E,E14000568
"All Saints Road, Bromsgrove, B61 0AG",180000,2019-09-18,https://www.rightmove.co.uk/property-for-sale/property-61693518.html,52.3413881071829,-2.05646612002573,E01032160,Bromsgrove 010C,E14000605
"Albert Road, Birmingham",160000,2019-09-06,https://www.rightmove.co.uk/property-for-sale/property-63318129.html,52.5186899554745,-1.85803898660855,E01009412,Birmingham 030C,E14000561
"Almond Croft, Birmingham, B42",NULL,2019-09-06,https://www.rightmove.co.uk/property-for-sale/property-82355249.html,52.5346658801764,-1.92904586749081,E01009237,Birmingham 024A,E14000566
"All Saints Road, Bromsgrove",175000,2019-11-06,https://www.rightmove.co.uk/property-for-sale/property-66216561.html,52.3413881071829,-2.05646612002573,E01032160,Bromsgrove 010C,E14000605
"Amberley Grove, Erdington, Birmingham, West Midlands, B6",160000,2019-09-06,https://www.rightmove.co.uk/property-for-sale/property-73497934.html,52.5181725886504,-1.87778805474864,E01008915,Birmingham 030A,E14000566
"ANDREW ROAD, WEST BROMWICH, WEST MIDLANDS, B71 3QP",200000,2019-09-06,https://www.rightmove.co.uk/property-for-sale/property-82915313.html,52.5511355781544,-1.97341058331472,E01009948,Sandwell 039B,E14001029
"Alder Road, Balsall Heath, Birmingham, B12",179950,2019-09-28,https://www.rightmove.co.uk/property-for-sale/property-83350841.html,52.4513774097428,-1.87797262568404,E01033648,Birmingham 084F,E14000562
"Alwold Road, Weoley Castle, B29",120000,2019-10-09,https://www.rightmove.co.uk/property-for-sale/property-65649495.html,52.4431625124321,-1.95935164475803,E01009291,Birmingham 095D,E14000565
"Aldershaw Road, Birmingham",200000,2019-09-25,https://www.rightmove.co.uk/property-for-sale/property-85076237.html,52.4595544897049,-1.80745423093425,E01008885,Birmingham 076A,E14000568
"Amphletts Close, Dudley",190000,2019-09-06,https://www.rightmove.co.uk/property-for-sale/property-84459431.html,52.4829723573483,-2.07328742886434,E01009875,Dudley 018E,E14000976
"Albert Road, Erdington, Birmingham, West Midlands, B23",160000,2019-09-06,https://www.rightmove.co.uk/property-for-sale/property-73699216.html,52.5186899554745,-1.85803898660855,E01009412,Birmingham 030C,E14000561
"Alwold Road, Weoley Castle",150000,2019-10-21,https://www.rightmove.co.uk/property-for-sale/property-74815963.html,52.4414579685189,-1.97156354058682,E01009500,Birmingham 095E,E14000565
"All Saints Road, Bromsgrove, B61 0AG",189950,2019-09-06,https://www.rightmove.co.uk/property-for-sale/property-61693518.html,52.3413881071829,-2.05646612002573,E01032160,Bromsgrove 010C,E14000605
"Appleton Avenue, Great Barr",175000,2019-09-18,https://www.rightmove.co.uk/property-for-sale/property-74184208.html,52.5397069720959,-1.94142278998138,E01010008,Sandwell 011A,E14001029
"Ardencote Road, Birmingham",180000,2019-10-21,https://www.rightmove.co.uk/property-for-sale/property-73307851.html,52.4257594930653,-1.88157266902089,E01008936,Birmingham 111C,E14000567
"Almond Croft, Birmingham, B42",174950,2019-09-21,https://www.rightmove.co.uk/property-for-sale/property-82355249.html,52.5346658801764,-1.92904586749081,E01009237,Birmingham 024A,E14000566
"Amberley Grove, Birmingham, B6",160000,2019-10-23,https://www.rightmove.co.uk/property-for-sale/property-60719742.html,52.5181725886504,-1.87778805474864,E01008915,Birmingham 030A,E14000566
"Baldwin Street, Birmingham, Smethwick, United Kingdom, B66",180000,2019-09-10,https://www.rightmove.co.uk/property-for-sale/property-64727397.html,52.4947652528932,-1.9601881300051,E01010062,Sandwell 026C,E14001016
"Anglesey Avenue, Birmingham",170000,2019-09-06,https://www.rightmove.co.uk/property-for-sale/property-64211223.html,52.4972752166682,-1.74085787603398,E01010238,Solihull 004D,E14000812
"Amphletts Close, Netherton",190000,2019-09-18,https://www.rightmove.co.uk/property-for-sale/property-84459431.html,52.4829723573483,-2.07328742886434,E01009875,Dudley 018E,E14000976
"Attingham Drive, Dudley",180000,2019-10-05,https://www.rightmove.co.uk/property-for-sale/property-73967851.html,52.5157689554675,-2.0964777906018,E01009879,Dudley 011B,E14000671
"Alvechurch Road, Northfield, Birmingham, West Midlands, B31",200000,2019-09-15,https://www.rightmove.co.uk/property-for-sale/property-74147272.html,52.3898513493127,-1.95895949279941,E01009217,Birmingham 131E,E14000565
"Blakemore Close, Birmingham",160000,2019-09-06,https://www.rightmove.co.uk/property-for-sale/property-72671864.html,52.4455039173166,-1.97347359723099,E01009500,Birmingham 095E,E14000560
"Anderton Road, Sparkbrook",170000,2019-09-06,https://www.rightmove.co.uk/property-for-sale/property-73672342.html,52.4627794296784,-1.86395872422161,E01033650,Birmingham 077F,E14000562
"Asholme Close, Biringham, Birmingham, West Midlands, B36",165000,2019-09-15,https://www.rightmove.co.uk/property-for-sale/property-65071515.html,52.5024598465146,-1.82229334321813,E01009082,Birmingham 044A,E14000563
"Anglesey Avenue, Birmingham, B36",180000,2019-11-04,https://www.rightmove.co.uk/property-for-sale/property-66125757.html,52.4972752166682,-1.74085787603398,E01010238,Solihull 004D,E14000812
"Anchor Crescent, Birmingham, B18",175000,2019-09-06,https://www.rightmove.co.uk/property-for-sale/property-59596893.html,52.4919634134483,-1.92837795192079,E01009348,Birmingham 047A,E14000564
"Aldershaw Road, Birmingham, B26",200000,2019-09-21,https://www.rightmove.co.uk/property-for-sale/property-64968516.html,52.4595544897049,-1.80745423093425,E01008885,Birmingham 076A,E14000568
"Barlow Court, Kingsbury, Tamworth",120000,2019-09-08,https://www.rightmove.co.uk/property-for-sale/property-72802780.html,52.5670760829808,-1.68305677578703,E01031033,North Warwickshire 004C,E14000854
"Blakesley Road, Birmingham, B25",160000,2019-10-19,https://www.rightmove.co.uk/property-for-sale/property-82443443.html,52.4736801951906,-1.81460645589103,E01008897,Birmingham 067B,E14000568
"Bloxcidge Street, Oldbury",180000,2019-09-06,https://www.rightmove.co.uk/property-for-sale/property-60987669.html,52.4892879847809,-2.00422737903929,E01010005,Sandwell 030D,E14001016
"Anglesey Avenue, Birmingham",160000,2019-09-15,https://www.rightmove.co.uk/property-for-sale/property-64211223.html,52.4972752166682,-1.74085787603398,E01010238,Solihull 004D,E14000812
"Bandywood Road, Birmingham",145000,2019-09-29,https://www.rightmove.co.uk/property-for-sale/property-85104269.html,52.5577412905092,-1.89139598579872,E01009222,Birmingham 008B,E14000566
"Appleton Avenue, BIRMINGHAM",170000,2019-09-10,https://www.rightmove.co.uk/property-for-sale/property-84622322.html,52.5400664935895,-1.94127487171818,E01010008,Sandwell 011A,E14001029
"Anchor Drive, Tipton",190000,2019-09-08,https://www.rightmove.co.uk/property-for-sale/property-64897326.html,52.5186718424625,-2.05595733663032,E01010072,Sandwell 021D,E14001030
"Ansell Road, Erdington, Birmingham",170000,2019-09-06,https://www.rightmove.co.uk/property-for-sale/property-71795665.html,52.509954483785,-1.8458377611425,E01009400,Birmingham 031E,E14000561
"Almond Avenue, Walsall, WS5",175000,2019-09-18,https://www.rightmove.co.uk/property-for-sale/property-74178199.html,52.5605728155124,-1.96529184976583,E01009970,Sandwell 002B,E14001029
"Barrows Lane, Birmingham, B26",170000,2019-09-18,https://www.rightmove.co.uk/property-for-sale/property-74211709.html,52.4697954961493,-1.80284618263833,E01009518,Birmingham 067D,E14000568
"Barn Owl Walk, Brierley Hill, DY5",185000,2019-10-01,https://www.rightmove.co.uk/property-for-sale/property-85293986.html,52.4611697238012,-2.12829575409137,E01009722,Dudley 027B,E14000976
"Ardath Road, Kings Norton",150000,2019-10-03,https://www.rightmove.co.uk/property-for-sale/property-65050470.html,52.4042180849741,-1.92381597057969,E01009120,Birmingham 123D,E14000565
"Ardav Road, West Bromwich",160000,2019-09-06,https://www.rightmove.co.uk/property-for-sale/property-84315773.html,52.5417878790885,-2.0169132331364,E01010100,Sandwell 013F,E14001030
"Appleton Avenue, Birmingham",190000,2019-10-17,https://www.rightmove.co.uk/property-for-sale/property-74807608.html,52.5397069720959,-1.94142278998138,E01010008,Sandwell 011A,E14001029
"Baldmoor Lake Road, Birmingham",185000,2019-10-19,https://www.rightmove.co.uk/property-for-sale/property-65858619.html,52.5352140608188,-1.84427520513007,E01009002,Birmingham 023A,E14000561
"Bay Tree Court, Larchwood Road, Walsall",200000,2019-09-06,https://www.rightmove.co.uk/property-for-sale/property-81364595.html,52.5584152983219,-1.96544104286262,E01009970,Sandwell 002B,E14001029
"Beaconsfield Street, West Bromwich, B71",165000,2019-09-06,https://www.rightmove.co.uk/property-for-sale/property-59802792.html,52.5278545564318,-1.99243923288151,E01009993,Sandwell 017C,E14001029
"Brickhouse Road, Rowley Regis",145000,2019-09-18,https://www.rightmove.co.uk/property-for-sale/property-65122278.html,52.4873871360009,-2.05547564286865,E01010038,Sandwell 029A,E14000722
"Barnwood Road, Quinton",160000,2019-09-06,https://www.rightmove.co.uk/property-for-sale/property-64133310.html,52.4518876424622,-1.97744277575885,E01009073,Birmingham 085A,E14000560
"Beech Crescent, WEDNESBURY",130000,2019-10-19,https://www.rightmove.co.uk/property-for-sale/property-74796757.html,52.5641724417918,-2.01795463489094,E01010086,Sandwell 001B,E14001030
"Arden Road, Aston, Birmingham",180000,2019-09-06,https://www.rightmove.co.uk/property-for-sale/property-83564465.html,52.5066845101153,-1.89785676241529,E01009061,Birmingham 033E,E14000564
"Asholme Close, Birmingham",165000,2019-09-15,https://www.rightmove.co.uk/property-for-sale/property-65004555.html,52.5024598465146,-1.82229334321813,E01009082,Birmingham 044A,E14000563
"Arkley Road, Hall Green",164950,2019-10-15,https://www.rightmove.co.uk/property-for-sale/property-83577518.html,52.4287561076471,-1.83200195908173,E01009033,Birmingham 103F,E14000562
"Bodenham Road, Oldbury",180000,2019-10-09,https://www.rightmove.co.uk/property-for-sale/property-65652870.html,52.468700973081,-2.00437248659287,E01010028,Sandwell 037E,E14001016
"Arkley Road, Hall Green",169950,2019-09-06,https://www.rightmove.co.uk/property-for-sale/property-83577518.html,52.4287561076471,-1.83200195908173,E01009033,Birmingham 103F,E14000562
"Asquith Road, Ward End, Birmingham, West Midlands, B8",200000,2019-09-06,https://www.rightmove.co.uk/property-for-sale/property-76044551.html,52.4941117652326,-1.83086966910276,E01009486,Birmingham 044E,E14000563
"Brackenfield Road, Great Barr",170000,2019-09-06,https://www.rightmove.co.uk/property-for-sale/property-73512241.html,52.5531679014318,-1.90468097650491,E01009223,Birmingham 013A,E14000566
"Beechdale Avenue, Great Barr, Birmingham, West Midlands, B44",200000,2019-10-17,https://www.rightmove.co.uk/property-for-sale/property-65773461.html,52.5524385019664,-1.89273639664538,E01009224,Birmingham 008C,E14000566
"Attingham Drive, Dudley",190000,2019-09-06,https://www.rightmove.co.uk/property-for-sale/property-73967851.html,52.5157689554675,-2.0964777906018,E01009879,Dudley 011B,E14000671
"Beebee Road, Wednesbury, WS10",187500,2019-09-18,https://www.rightmove.co.uk/property-for-sale/property-60975129.html,52.5661503564222,-2.01692274905035,E01010087,Sandwell 001C,E14001030
"Belvidere Gardens, Birmingham",175000,2019-09-21,https://www.rightmove.co.uk/property-for-sale/property-73652260.html,52.4522653391533,-1.86766977555886,E01009396,Birmingham 082D,E14000562
"Belvidere Gardens, Birmingham, B11",165000,2019-10-13,https://www.rightmove.co.uk/property-for-sale/property-65020353.html,52.4522653391533,-1.86766977555886,E01009396,Birmingham 082D,E14000562
"Brandon Grove, Longbridge, Birmingham, B31",185000,2019-09-28,https://www.rightmove.co.uk/property-for-sale/property-84125714.html,52.3912944126673,-1.9758569141197,E01009168,Birmingham 131B,E14000565
"Austin Close, Birmingham, West Midlands, B27",165000,2019-09-06,https://www.rightmove.co.uk/property-for-sale/property-83764298.html,52.4512903719932,-1.81161029562171,E01008893,Birmingham 089D,E14000568
"BIRMINGHAM, Woodgate Lane",179950,2019-09-06,https://www.rightmove.co.uk/property-for-sale/property-84100619.html,52.4430788926561,-2.01260839826985,E01008921,Birmingham 094C,E14000560
"Asholme Close, Birmingham, B36",160000,2019-10-25,https://www.rightmove.co.uk/property-for-sale/property-65956299.html,52.5024598465146,-1.82229334321813,E01009082,Birmingham 044A,E14000563
"Benedon Road, Birmingham",180000,2019-09-06,https://www.rightmove.co.uk/property-for-sale/property-73659163.html,52.4620352877305,-1.78624931516574,E01009316,Birmingham 081B,E14000568
"Berrowside Road, Shard End, B34",168000,2019-11-06,https://www.rightmove.co.uk/property-for-sale/property-75313348.html,52.4962400807801,-1.76163263562364,E01009308,Birmingham 046C,E14000563
"Bristol Road South, Northfield, Birmingham, B31 2TH",165000,2019-11-04,https://www.rightmove.co.uk/property-for-sale/property-86275964.html,52.4020834961862,-1.98128940533876,E01009208,Birmingham 124C,E14000565
"Ash Crescent, Birmingham",180000,2019-09-06,https://www.rightmove.co.uk/property-for-sale/property-84425906.html,52.49586143636,-1.7523551384962,E01010146,Solihull 004A,E14000812
"Belle Vue Gardens, Rowley Regis",175000,2019-09-06,https://www.rightmove.co.uk/property-for-sale/property-84121709.html,52.4813697654918,-2.04103796928586,E01009929,Sandwell 033A,E14000722
"Bannerlea Road, Birmingham",159999,2019-09-06,https://www.rightmove.co.uk/property-for-sale/property-79438115.html,52.4908277344052,-1.75267793829872,E01010147,Solihull 005B,E14000812
"Ash Crescent, Birmingham",170000,2019-10-23,https://www.rightmove.co.uk/property-for-sale/property-84425906.html,52.49586143636,-1.7523551384962,E01010146,Solihull 004A,E14000812
"Blackberry Lane, Rowley Regis",160000,2019-09-06,https://www.rightmove.co.uk/property-for-sale/property-73405366.html,52.4941258235301,-2.06299586135374,E01010044,Sandwell 025C,E14000722
"Barrs Road, Cradley Heath",140000,2019-10-01,https://www.rightmove.co.uk/property-for-sale/property-83979197.html,52.4663408430902,-2.07340690053837,E01009954,Sandwell 038B,E14000722
"Barnwood Road, Quinton, Birmingham, West Midlands, B32",160000,2019-09-06,https://www.rightmove.co.uk/property-for-sale/property-83702312.html,52.4518876424622,-1.97744277575885,E01009073,Birmingham 085A,E14000560
"Blythsford Road, Hall Green",199950,2019-09-06,https://www.rightmove.co.uk/property-for-sale/property-84093542.html,52.4151902032726,-1.838522542775,E01009041,Birmingham 132C,E14000562
"Baldwin Street, Birmingham, Smethwick, United Kingdom, B66",190000,2019-09-06,https://www.rightmove.co.uk/property-for-sale/property-64727397.html,52.4947652528932,-1.9601881300051,E01010062,Sandwell 026C,E14001016
"Brabazon Grove, Birmingham, B35 6DT",165000,2019-10-15,https://www.rightmove.co.uk/property-for-sale/property-65767590.html,52.5190508357397,-1.79717331536037,E01009101,Birmingham 029D,E14000561
"Bankes Road, BIRMINGHAM, West Midlands",180000,2019-09-15,https://www.rightmove.co.uk/property-for-sale/property-84695138.html,52.4729170201506,-1.84670308068134,E01009331,Birmingham 139D,E14000563
"Beckbury Road, Birmingham",164000,2019-09-25,https://www.rightmove.co.uk/property-for-sale/property-83282513.html,52.4387603754197,-1.96921160491558,E01009501,Birmingham 101B,E14000565
"Ashill Road, Rednal, Birmingham",160000,2019-10-29,https://www.rightmove.co.uk/property-for-sale/property-74151073.html,52.3930049131902,-2.00392369650545,E01009167,Birmingham 130C,E14000565
"Blake Lane, Birmingham, B9",190000,2019-09-06,https://www.rightmove.co.uk/property-for-sale/property-64840887.html,52.4767764955395,-1.8419783192607,E01009343,Birmingham 063E,E14000563
"Birdbrook Road, Great Barr, Birmingham",165000,2019-09-06,https://www.rightmove.co.uk/property-for-sale/property-64891479.html,52.5420098874458,-1.89231940916212,E01009227,Birmingham 013C,E14000566
"Brandon Road, Birmingham",180000,2019-10-31,https://www.rightmove.co.uk/property-for-sale/property-74816275.html,52.441368996696,-1.85210845436134,E01009043,Birmingham 097B,E14000562
"Bridge Close, Birmingham, B11",165000,2019-09-06,https://www.rightmove.co.uk/property-for-sale/property-62058261.html,52.4478626962073,-1.86988995212138,E01009389,Birmingham 093B,E14000562
"BRIERLEY HILL, QUARRY BANK, Woodland Avenue",164950,2019-09-06,https://www.rightmove.co.uk/property-for-sale/property-81643262.html,52.473602536615,-2.10080189085916,E01009865,Dudley 025B,E14000976
"Ballard Walk, BIRMINGHAM",190000,2019-10-29,https://www.rightmove.co.uk/property-for-sale/property-65319483.html,52.4951300910385,-1.74661485854947,E01010145,Solihull 005A,E14000812
"Benedon Road, Birmingham, B26",160000,2019-09-06,https://www.rightmove.co.uk/property-for-sale/property-61006344.html,52.4651886107903,-1.79006104866754,E01009324,Birmingham 072B,E14000568
"Ballard Walk, BIRMINGHAM",200000,2019-09-25,https://www.rightmove.co.uk/property-for-sale/property-65319483.html,52.4951300910385,-1.74661485854947,E01010145,Solihull 005A,E14000812
"Barrows Lane, Birmingham, B26",200000,2019-10-21,https://www.rightmove.co.uk/property-for-sale/property-65904216.html,52.4624066626936,-1.79287073400099,E01009312,Birmingham 072A,E14000568
"Bramley Road, Acocks Green",150000,2019-11-06,https://www.rightmove.co.uk/property-for-sale/property-86354801.html,52.4542725641884,-1.82160415375022,E01008890,Birmingham 089A,E14000568
"Brushfield Road, Great Barr",170000,2019-10-05,https://www.rightmove.co.uk/property-for-sale/property-84057434.html,52.5409411202323,-1.90397016288662,E01009248,Birmingham 019D,E14000566
"Brett Young Close, Halesowen",190000,2019-10-15,https://www.rightmove.co.uk/property-for-sale/property-74795941.html,52.4457666596948,-2.04836100627644,E01009806,Dudley 039F,E14000722
"Blake Lane, Birmingham, B9",170000,2019-10-09,https://www.rightmove.co.uk/property-for-sale/property-64840887.html,52.4767764955395,-1.8419783192607,E01009343,Birmingham 063E,E14000563
"Beckbury Road, Birmingham",169000,2019-09-18,https://www.rightmove.co.uk/property-for-sale/property-83282513.html,52.4387603754197,-1.96921160491558,E01009501,Birmingham 101B,E14000565
"Beaconsfield Road, Balsall Heath, Birmingham, B12",190000,2019-09-06,https://www.rightmove.co.uk/property-for-sale/property-81237137.html,52.4543591573724,-1.89356289034378,E01009182,Birmingham 092A,E14000562
"BIRMINGHAM, Woodgate Lane",175000,2019-09-11,https://www.rightmove.co.uk/property-for-sale/property-84100619.html,52.4430788926561,-2.01260839826985,E01008921,Birmingham 094C,E14000560
"Burnside Gardens, Walsall",170000,2019-09-06,https://www.rightmove.co.uk/property-for-sale/property-84337256.html,52.5673071349454,-1.94418932239332,E01010334,Walsall 035D,E14001012
"Belvidere Gardens, Birmingham",190000,2019-09-06,https://www.rightmove.co.uk/property-for-sale/property-73652260.html,52.4522653391533,-1.86766977555886,E01009396,Birmingham 082D,E14000562
"Brandon Road, Hall Green",190000,2019-10-29,https://www.rightmove.co.uk/property-for-sale/property-86039726.html,52.441368996696,-1.85210845436134,E01009043,Birmingham 097B,E14000562
"Beechdale Avenue, Great Barr, B44",200000,2019-09-25,https://www.rightmove.co.uk/property-for-sale/property-65305857.html,52.552168539616,-1.89244208825636,E01009224,Birmingham 008C,E14000566
"Benedon Road, Birmingham, B26",180000,2019-09-06,https://www.rightmove.co.uk/property-for-sale/property-79973423.html,52.4620352877305,-1.78624931516574,E01009316,Birmingham 081B,E14000568
"Burton Grove, Cradley Heath",190000,2019-09-06,https://www.rightmove.co.uk/property-for-sale/property-84020678.html,52.4712887520022,-2.06767389541888,E01009952,Sandwell 035B,E14000722
"Berrowside Road, Birmingham",168000,2019-10-25,https://www.rightmove.co.uk/property-for-sale/property-84844652.html,52.4962400807801,-1.76163263562364,E01009308,Birmingham 046C,E14000563
"Bodenham Road, Brandhall, Oldbury",175000,2019-09-06,https://www.rightmove.co.uk/property-for-sale/property-72734095.html,52.468700973081,-2.00437248659287,E01010028,Sandwell 037E,E14001016
"Booths Farm Road, Great Barr",195000,2019-09-25,https://www.rightmove.co.uk/property-for-sale/property-65908630.html,52.5390660741593,-1.92137199493339,E01009247,Birmingham 016E,E14000566
"Burton Grove, Old Hill, Cradley Heath, West Midlands, B64",190000,2019-09-06,https://www.rightmove.co.uk/property-for-sale/property-80203055.html,52.4712887520022,-2.06767389541888,E01009952,Sandwell 035B,E14000722
"Brandwood Crescent, Kings Norton, Birmingham",199950,2019-09-06,https://www.rightmove.co.uk/property-for-sale/property-63344106.html,52.4124734145081,-1.9026314813916,E01008973,Birmingham 118B,E14000567
"Briery Close, Cradley Heath",155000,2019-09-06,https://www.rightmove.co.uk/property-for-sale/property-84020714.html,52.4632890842728,-2.06515943054161,E01009954,Sandwell 038B,E14000722
"Carshalton Road, Birmingham, B44",160000,2019-09-06,https://www.rightmove.co.uk/property-for-sale/property-61242831.html,52.5502704119525,-1.88168095833743,E01009131,Birmingham 011D,E14000561
"Brinklow Road, Weoley Castle, Birmingham, B29",160000,2019-09-25,https://www.rightmove.co.uk/property-for-sale/property-74332342.html,52.4422675130472,-1.97347552169855,E01009500,Birmingham 095E,E14000560
"Brookvale Road, Birmingham",185000,2019-09-06,https://www.rightmove.co.uk/property-for-sale/property-62225835.html,52.5214966955525,-1.87571553333397,E01009411,Birmingham 030B,E14000561
"Blakemere Avenue, Birmingham, B25",187500,2019-09-06,https://www.rightmove.co.uk/property-for-sale/property-60836472.html,52.4689061663455,-1.80873831910469,E01009521,Birmingham 067E,E14000568
"Brays Road, Birmingham",170000,2019-09-06,https://www.rightmove.co.uk/property-for-sale/property-73767763.html,52.4600622597721,-1.78890800383537,E01009316,Birmingham 081B,E14000568
"Church Road, Northfield, B31",185000,2019-09-06,https://www.rightmove.co.uk/property-for-sale/property-64871949.html,52.4146667231451,-1.96790503249718,E01009218,Birmingham 120D,E14000565
"Bell Lane, Tile Cross, Birmingham",170000,2019-09-06,https://www.rightmove.co.uk/property-for-sale/property-64027668.html,52.4725002514374,-1.75852201957117,E01009302,Birmingham 069A,E14000563
"Bent Avenue, Quinton, Birmingham, West Midlands, B32",200000,2019-09-06,https://www.rightmove.co.uk/property-for-sale/property-84369257.html,52.4595308289609,-1.98965425141711,E01009256,Birmingham 085D,E14000560
"Brindlefields Way, Tipton",145000,2019-10-29,https://www.rightmove.co.uk/property-for-sale/property-65041665.html,52.5165160840458,-2.05197578245972,E01010072,Sandwell 021D,E14001030
"Brigfield Road, Birmingham",200000,2019-09-06,https://www.rightmove.co.uk/property-for-sale/property-73985743.html,52.4211658952816,-1.87320338301489,E01008939,Birmingham 111E,E14000567
"Broad Acres, Birmingham, B31",195000,2019-09-27,https://www.rightmove.co.uk/property-for-sale/property-65361015.html,52.4245592395882,-1.98554465646327,E01008930,Birmingham 106D,E14000560
"Buxton Road, Birmingham",180000,2019-09-06,https://www.rightmove.co.uk/property-for-sale/property-82583855.html,52.5351533201464,-1.86830578369831,E01009121,Birmingham 014A,E14000561
"Clun Close, Tividale, Oldbury",170000,2019-09-25,https://www.rightmove.co.uk/property-for-sale/property-73722097.html,52.5088707502133,-2.06021761684766,E01010081,Sandwell 022D,E14001030
"Bristol Road South, Northfield, Birmingham, B31",185000,2019-10-25,https://www.rightmove.co.uk/property-for-sale/property-74844445.html,52.4074767620024,-1.97687717299723,E01009209,Birmingham 124D,E14000565
"Birchfield Road, Stourbridge, DY9 9BU",165000,2019-09-06,https://www.rightmove.co.uk/property-for-sale/property-64341426.html,52.4462657053989,-2.10897851614812,E01009838,Dudley 037D,E14000976
"Buxton Road, Erdington, Birmingham",170000,2019-10-31,https://www.rightmove.co.uk/property-for-sale/property-66048297.html,52.5351533201464,-1.86830578369831,E01009121,Birmingham 014A,E14000561
"Brindley Road, West Bromwich, West Midlands, B71",160000,2019-09-06,https://www.rightmove.co.uk/property-for-sale/property-70310722.html,52.5417885070285,-2.01175256543747,E01010098,Sandwell 013D,E14001030
"Bromsgrove Road, Halesowen, B63",179000,2019-10-15,https://www.rightmove.co.uk/property-for-sale/property-64819140.html,52.4472960723396,-2.04556718324826,E01009806,Dudley 039F,E14000722
"Brandon Road, Hall Green, Birmingham, West Midlands, B28",190000,2019-10-09,https://www.rightmove.co.uk/property-for-sale/property-65639949.html,52.441368996696,-1.85210845436134,E01009043,Birmingham 097B,E14000562
"Berryfields, Aldridge",175000,2019-09-06,https://www.rightmove.co.uk/property-for-sale/property-83808380.html,52.5995765561749,-1.93632350925806,E01010244,Walsall 015D,E14000531
"Brook Road, Rednal, Birmingham, B45",154950,2019-09-06,https://www.rightmove.co.uk/property-for-sale/property-61757199.html,52.3943511209689,-2.02361590241123,E01032172,Bromsgrove 003D,E14000605
"Bushbury Road, Stechford, B33",150000,2019-10-11,https://www.rightmove.co.uk/property-for-sale/property-74620951.html,52.4909054309426,-1.79317887679757,E01009091,Birmingham 045B,E14000563
"Cartland Road, Stirchley, Birmingham, West Midlands, B30",199950,2019-10-25,https://www.rightmove.co.uk/property-for-sale/property-85944263.html,52.4310938722524,-1.91715128924918,E01008965,Birmingham 107D,E14000567
"Bishops Close, Erdington, Birmingham",195000,2019-09-06,https://www.rightmove.co.uk/property-for-sale/property-62693472.html,52.5150985367587,-1.86188185813942,E01009414,Birmingham 030E,E14000561
"Belvidere Gardens, Birmingham, B11",180000,2019-09-15,https://www.rightmove.co.uk/property-for-sale/property-65020353.html,52.4522653391533,-1.86766977555886,E01009396,Birmingham 082D,E14000562
"Brinsley Road, Birmingham",180000,2019-09-18,https://www.rightmove.co.uk/property-for-sale/property-64510935.html,52.4695830768977,-1.78415190639913,E01009323,Birmingham 069E,E14000568
"Broomcroft Road, Kingshurst, B37",200000,2019-09-18,https://www.rightmove.co.uk/property-for-sale/property-70699957.html,52.4928045785681,-1.75222500780433,E01010148,Solihull 005C,E14000812
"Bleakhouse Road, Oldbury",199950,2019-09-06,https://www.rightmove.co.uk/property-for-sale/property-62734956.html,52.4728364307777,-1.99818980294525,E01010026,Sandwell 036C,E14001016
"College Road, Kingstanding, Birmingham",195000,2019-09-06,https://www.rightmove.co.uk/property-for-sale/property-64882167.html,52.5339955124621,-1.87848133385016,E01009123,Birmingham 022A,E14000561
"Burnel Road, B29",175000,2019-09-25,https://www.rightmove.co.uk/property-for-sale/property-84802790.html,52.444601933717,-1.96243991092401,E01009064,Birmingham 095B,E14000560
"Berrowside Road, Birmingham",170000,2019-09-18,https://www.rightmove.co.uk/property-for-sale/property-84844652.html,52.4962400807801,-1.76163263562364,E01009308,Birmingham 046C,E14000563
"Bewlys Avenue, Handsworth Wood",200000,2019-10-11,https://www.rightmove.co.uk/property-for-sale/property-85526936.html,52.5255918349189,-1.93937797620872,E01032591,Birmingham 133F,E14000566
"Bristol Road South, Northfield, Birmingham, B31",195000,2019-09-06,https://www.rightmove.co.uk/property-for-sale/property-73203757.html,52.4074767620024,-1.97687717299723,E01009209,Birmingham 124D,E14000565
"Bewell Head, Bromsgrove, B61",200000,2019-09-11,https://www.rightmove.co.uk/property-for-sale/property-74091001.html,52.3447118206464,-2.0617548569076,E01032161,Bromsgrove 010D,E14000605
"Chapelhouse Lane, Halesowen",190000,2019-10-17,https://www.rightmove.co.uk/property-for-sale/property-85708322.html,52.4588685559588,-2.08884733627062,E01009862,Dudley 033D,E14000976
"Brook Close, Birmingham, B33",200000,2019-09-06,https://www.rightmove.co.uk/property-for-sale/property-82870784.html,52.4884149833801,-1.80909563185608,E01009095,Birmingham 056A,E14000568
"Birdbrook Road, Birmingham, B44",160000,2019-10-15,https://www.rightmove.co.uk/property-for-sale/property-65681253.html,52.5420098874458,-1.89231940916212,E01009227,Birmingham 013C,E14000566
"Bodenham Road, Oldbury, B68",180000,2019-10-15,https://www.rightmove.co.uk/property-for-sale/property-65739612.html,52.468700973081,-2.00437248659287,E01010028,Sandwell 037E,E14001016
"Bracebridge Road, Birmingham",179950,2019-09-06,https://www.rightmove.co.uk/property-for-sale/property-63175278.html,52.5105769485459,-1.84067857070399,E01008998,Birmingham 031A,E14000561
"Blake Lane, Birmingham, B9",160000,2019-09-21,https://www.rightmove.co.uk/property-for-sale/property-64840887.html,52.4767764955395,-1.8419783192607,E01009343,Birmingham 063E,E14000563
"Castle Road, Birmingham",160000,2019-09-27,https://www.rightmove.co.uk/property-for-sale/property-82947140.html,52.4417263220737,-1.96641440076828,E01009291,Birmingham 095D,E14000565
"Bryndale Avenue, Kings Heath, Birmingham, B14",195000,2019-09-06,https://www.rightmove.co.uk/property-for-sale/property-64215723.html,52.4186821417074,-1.90967560633006,E01008972,Birmingham 118A,E14000567
"Buckingham Road, Rowley Regis, Birmingham, West Midlands, B65",200000,2019-11-06,https://www.rightmove.co.uk/property-for-sale/property-85716518.html,52.487215132367,-2.03515283975654,E01009936,Sandwell 027C,E14000722
"Burton Grove, Cradley Heath, West Midlands, B64",185000,2019-10-31,https://www.rightmove.co.uk/property-for-sale/property-64394742.html,52.4712887520022,-2.06767389541888,E01009952,Sandwell 035B,E14000722
"Bracebridge Road, Erdington, Birmingham, West Midlands, B24",180000,2019-09-06,https://www.rightmove.co.uk/property-for-sale/property-73678099.html,52.5105769485459,-1.84067857070399,E01008998,Birmingham 031A,E14000561
Collingwood Drive,189950,2019-09-08,https://www.rightmove.co.uk/property-for-sale/property-63276150.html,52.5576641105394,-1.90629376971166,E01010359,Walsall 039F,E14001012
"Burton Grove, Old Hill, Cradley Heath, West Midlands, B64",185000,2019-10-31,https://www.rightmove.co.uk/property-for-sale/property-80203055.html,52.4712887520022,-2.06767389541888,E01009952,Sandwell 035B,E14000722
"Broadyates Road, Birmingham, B25",160000,2019-09-06,https://www.rightmove.co.uk/property-for-sale/property-60425829.html,52.4604722797745,-1.8193714932367,E01008887,Birmingham 078C,E14000568
"Chadcote Way, Catshill, Bromsgrove, B61",170000,2019-10-25,https://www.rightmove.co.uk/property-for-sale/property-85932956.html,52.3646703984457,-2.06090165611563,E01032128,Bromsgrove 007B,E14000605
"Charlbury Avenue, Chelmsley Wood, Birmingham, B37",165000,2019-09-06,https://www.rightmove.co.uk/property-for-sale/property-73236280.html,52.4797805525434,-1.75774600342605,E01010144,Solihull 007D,E14000812
"Booths Lane, Great Barr, Birmingham B42 2AA",175000,2019-10-09,https://www.rightmove.co.uk/property-for-sale/property-74643049.html,52.5426521224179,-1.90765270444359,E01009244,Birmingham 019C,E14000566
"Blithfield Grove, Erdington, Birmingham",169950,2019-09-06,https://www.rightmove.co.uk/property-for-sale/property-81369428.html,52.5297813863471,-1.81717138971147,E01009005,Birmingham 025A,E14000561
"Conyworth Close, Acocks Green, Birmingham, West Midlands, B27",165000,2019-10-11,https://www.rightmove.co.uk/property-for-sale/property-85529786.html,52.4494907368988,-1.81058798696913,E01008895,Birmingham 089F,E14000568
"Bramley Close, Great Barr, BIRMINGHAM",169950,2019-09-06,https://www.rightmove.co.uk/property-for-sale/property-73186021.html,52.5572115243797,-1.90245974671597,E01010358,Walsall 039E,E14001012
"Canberra Way, Balsall Heath, Birmingham, West Midlands, B12",195000,2019-09-06,https://www.rightmove.co.uk/property-for-sale/property-83193881.html,52.4681048205359,-1.883961729208,E01009364,Birmingham 071C,E14000564
"Brook Lane, Kings Heath, Birmingham, West Midlands, B13",170000,2019-09-06,https://www.rightmove.co.uk/property-for-sale/property-70513814.html,52.4316010748205,-1.87964501046218,E01009179,Birmingham 104D,E14000562
"Cecil Street, Walsall, West Midlands, WS4",160000,2019-09-06,https://www.rightmove.co.uk/property-for-sale/property-67990066.html,52.5927593905858,-1.97810944291145,E01010318,Walsall 024B,E14001012
"Burnham Road, Great Barr, Birmingham",160000,2019-09-06,https://www.rightmove.co.uk/property-for-sale/property-62066928.html,52.537966181514,-1.89424593204171,E01009229,Birmingham 017B,E14000566
"Blythsford Road, Hall Green",189950,2019-10-25,https://www.rightmove.co.uk/property-for-sale/property-84093542.html,52.4151902032726,-1.838522542775,E01009041,Birmingham 132C,E14000562
"Church Road, Northfield, Birmingham, B31 2LE",185000,2019-10-09,https://www.rightmove.co.uk/property-for-sale/property-85479350.html,52.4146667231451,-1.96790503249718,E01009218,Birmingham 120D,E14000565
"Charlbury Crescent, Birmingham, West Midlands, ., B26",200000,2019-10-17,https://www.rightmove.co.uk/property-for-sale/property-65495349.html,52.4693383101871,-1.79828484738821,E01009519,Birmingham 072C,E14000568
"Charlbury Crescent, Birmingham, West Midlands, B26",190000,2019-09-18,https://www.rightmove.co.uk/property-for-sale/property-65132151.html,52.4686160927567,-1.79652170564626,E01009519,Birmingham 072C,E14000568
"Burton Grove, Cradley Heath, West Midlands, B64",190000,2019-09-06,https://www.rightmove.co.uk/property-for-sale/property-64394742.html,52.4712887520022,-2.06767389541888,E01009952,Sandwell 035B,E14000722
"Church Road, Yardley, Birmingham, B25",165000,2019-10-31,https://www.rightmove.co.uk/property-for-sale/property-75121252.html,52.4639682938475,-1.81288094643702,E01008886,Birmingham 076B,E14000568
"Buxton Road, Erdington, Birmingham, West Midlands, B23",200000,2019-10-25,https://www.rightmove.co.uk/property-for-sale/property-74998078.html,52.5351533201464,-1.86830578369831,E01009121,Birmingham 014A,E14000561
"Carlton Avenue, Stourbridge, DY9 9EF",160000,2019-10-09,https://www.rightmove.co.uk/property-for-sale/property-85447664.html,52.4465294030112,-2.11530573518981,E01009831,Dudley 037A,E14000976
"Cotterills Lane, Birmingham",200000,2019-09-25,https://www.rightmove.co.uk/property-for-sale/property-65320323.html,52.4879796355015,-1.81808085313884,E01009490,Birmingham 055D,E14000563
"Bramley Close, Great Barr, BIRMINGHAM",160000,2019-09-09,https://www.rightmove.co.uk/property-for-sale/property-73186021.html,52.5572115243797,-1.90245974671597,E01010358,Walsall 039E,E14001012
"Charnwood Close, Rubery, Rednal, Birmingham, B45",180000,2019-10-29,https://www.rightmove.co.uk/property-for-sale/property-75086803.html,52.4099961902936,-2.00289625086669,E01009174,Birmingham 119C,E14000565
"Chaffcombe Road, Sheldon, Birmingham, B26",180000,2019-09-06,https://www.rightmove.co.uk/property-for-sale/property-63397575.html,52.4640805524124,-1.77416999174128,E01009317,Birmingham 081C,E14000568
"Charlotte Street, Walsall, West Midlands, WS1",160000,2019-09-06,https://www.rightmove.co.uk/property-for-sale/property-82636853.html,52.5867344956049,-1.97014209246715,E01010369,Walsall 024D,E14001012
"Brandon Grove, Longbridge, Birmingham, B31",190000,2019-09-06,https://www.rightmove.co.uk/property-for-sale/property-84125714.html,52.3912944126673,-1.9758569141197,E01009168,Birmingham 131B,E14000565
"Brays Road, Birmingham",160000,2019-09-06,https://www.rightmove.co.uk/property-for-sale/property-73506214.html,52.4639085471922,-1.77829212376609,E01009314,Birmingham 069B,E14000568
"Chadcote Way, Catshill, Bromsgrove, B61",175000,2019-10-13,https://www.rightmove.co.uk/property-for-sale/property-74715454.html,52.3646703984457,-2.06090165611563,E01032128,Bromsgrove 007B,E14000605
"CHARLEMONT ROAD, WEST BROMWICH, B71 3HX",182000,2019-09-11,https://www.rightmove.co.uk/property-for-sale/property-84661379.html,52.5424172195006,-1.98329493321683,E01009950,Sandwell 039D,E14001029
"Booths Farm Road, Birmingham",190000,2019-09-11,https://www.rightmove.co.uk/property-for-sale/property-84653093.html,52.5390660741593,-1.92137199493339,E01009247,Birmingham 016E,E14000566
"Charnwood Close, Rednal, Birmingham, B45",200000,2019-09-21,https://www.rightmove.co.uk/property-for-sale/property-60210360.html,52.4099961902936,-2.00289625086669,E01009174,Birmingham 119C,E14000565
"Crabourne Road, Dudley",170000,2019-10-17,https://www.rightmove.co.uk/property-for-sale/property-65821716.html,52.4783756618493,-2.09035909646397,E01009877,Dudley 020E,E14000976
"Clancey Way, Halesowen",175000,2019-10-01,https://www.rightmove.co.uk/property-for-sale/property-72794440.html,52.4605881637227,-2.07192553552804,E01009863,Dudley 033E,E14000722
"Brean Avenue, Birmingham",200000,2019-10-25,https://www.rightmove.co.uk/property-for-sale/property-70949806.html,52.4566665010161,-1.80069729487953,E01010162,Solihull 010C,E14000931
"College Road, Kingstanding, Birmingham, West Midlands, B44",150000,2019-10-25,https://www.rightmove.co.uk/property-for-sale/property-74846845.html,52.5426132416783,-1.86680899975695,E01009132,Birmingham 014D,E14000561
"Chatsworth Crescent, Rushall",150000,2019-11-04,https://www.rightmove.co.uk/property-for-sale/property-75181972.html,52.6086601606484,-1.94413701431828,E01010323,Walsall 016C,E14000531
"Crantock Road, Great Barr, B42",170000,2019-11-04,https://www.rightmove.co.uk/property-for-sale/property-65897778.html,52.5247628654943,-1.90842707134651,E01009241,Birmingham 024D,E14000566
"Chesterton Road, Birmingham",170000,2019-09-06,https://www.rightmove.co.uk/property-for-sale/property-63889164.html,52.4544317059691,-1.87575686469936,E01009399,Birmingham 083E,E14000562
"Cossington Road, Birmingham",160000,2019-09-06,https://www.rightmove.co.uk/property-for-sale/property-61694544.html,52.5364824704673,-1.85193708589028,E01009403,Birmingham 020A,E14000561
"Chatsworth Road, Halesowen",190000,2019-09-06,https://www.rightmove.co.uk/property-for-sale/property-84296861.html,52.4667124129985,-2.05059203356864,E01009959,Sandwell 035E,E14000722
"Booths Farm Road, Great Barr",185000,2019-09-06,https://www.rightmove.co.uk/property-for-sale/property-65908630.html,52.5390660741593,-1.92137199493339,E01009247,Birmingham 016E,E14000566
"Chatsworth Road, Halesowen",200000,2019-09-06,https://www.rightmove.co.uk/property-for-sale/property-80343386.html,52.4667124129985,-2.05059203356864,E01009959,Sandwell 035E,E14000722
"Crantock Road, Great Barr, B42",180000,2019-10-21,https://www.rightmove.co.uk/property-for-sale/property-65897778.html,52.5247628654943,-1.90842707134651,E01009241,Birmingham 024D,E14000566
"Chestnut Road, Sidemoor, Bromsgrove, B61 8LT",180000,2019-09-29,https://www.rightmove.co.uk/property-for-sale/property-83009627.html,52.3440810974783,-2.06439617829345,E01032159,Bromsgrove 010B,E14000605
"Brentford Road, Birmingham",200000,2019-10-25,https://www.rightmove.co.uk/property-for-sale/property-85892969.html,52.4209054666772,-1.88217382240312,E01008969,Birmingham 117C,E14000567
"Bramley Road, Acocks Green",75000,2019-11-06,https://www.rightmove.co.uk/property-for-sale/property-86354726.html,52.4542725641884,-1.82160415375022,E01008890,Birmingham 089A,E14000568
"Cleeve Road, Birmingham, B14",170000,2019-10-01,https://www.rightmove.co.uk/property-for-sale/property-64036674.html,52.4149541676392,-1.8654288699035,E01008941,Birmingham 115C,E14000567
"Church Road, Northfield, Birmingham, West Midlands, B31",160000,2019-10-29,https://www.rightmove.co.uk/property-for-sale/property-74336329.html,52.4146667231451,-1.96790503249718,E01009218,Birmingham 120D,E14000565
"Crimmond Rise, Halesowen, B63",195000,2019-09-06,https://www.rightmove.co.uk/property-for-sale/property-82580171.html,52.4562749831696,-2.06853375845225,E01009737,Dudley 034D,E14000722
"Clover Avenue, Birmingham, West Midlands, B37",160000,2019-09-25,https://www.rightmove.co.uk/property-for-sale/property-85102172.html,52.4788098022247,-1.7249173845663,E01010130,Solihull 008E,E14000812
"Brentford Road, Kings Heath , Birmingham, B14",199950,2019-09-06,https://www.rightmove.co.uk/property-for-sale/property-61680135.html,52.4209054666772,-1.88217382240312,E01008969,Birmingham 117C,E14000567
"Cheslyn Grove, Warstock, Birmingham, B14",160000,2019-10-21,https://www.rightmove.co.uk/property-for-sale/property-65821689.html,52.4100225918042,-1.8773514955616,E01008942,Birmingham 117A,E14000567
"BRIERLEY HILL, QUARRY BANK, Marion Close",170000,2019-09-06,https://www.rightmove.co.uk/property-for-sale/property-82158740.html,52.4779134699631,-2.10567049343072,E01009864,Dudley 025A,E14000976
"Brinsley Road, Birmingham",185000,2019-09-06,https://www.rightmove.co.uk/property-for-sale/property-64510935.html,52.4695830768977,-1.78415190639913,E01009323,Birmingham 069E,E14000568
"Brandwood Park Road, Kings Heath, Birmingham",190000,2019-09-06,https://www.rightmove.co.uk/property-for-sale/property-72113641.html,52.4194043083773,-1.91364419143579,E01008972,Birmingham 118A,E14000567
"Church Vale, Birmingham",165000,2019-09-06,https://www.rightmove.co.uk/property-for-sale/property-64473282.html,52.5102947138871,-1.91597151515054,E01009057,Birmingham 035D,E14000566
"Compton Grove, Halesowen",180000,2019-10-25,https://www.rightmove.co.uk/property-for-sale/property-74951320.html,52.4535661044215,-2.08662934008743,E01009813,Dudley 033B,E14000722
"Cossington Road, Erdington, Birmingham, B23",160000,2019-09-18,https://www.rightmove.co.uk/property-for-sale/property-59703642.html,52.5364824704673,-1.85193708589028,E01009403,Birmingham 020A,E14000561
"Broadyates Road, Yardley, Birmingham",174950,2019-09-06,https://www.rightmove.co.uk/property-for-sale/property-63807405.html,52.4604711542974,-1.81863561763305,E01008887,Birmingham 078C,E14000568
"Churchill Road, Birmingham, B9",160000,2019-09-06,https://www.rightmove.co.uk/property-for-sale/property-64741836.html,52.4796548386322,-1.84314594447854,E01009197,Birmingham 058C,E14000563
"Church Road, Erdington, Birmingham, West Midlands, B24",170000,2019-09-06,https://www.rightmove.co.uk/property-for-sale/property-72884668.html,52.5214510887043,-1.83798646547739,E01009013,Birmingham 031D,E14000561
"Cotterills Lane, Birmingham",190000,2019-09-06,https://www.rightmove.co.uk/property-for-sale/property-64397586.html,52.4861981130939,-1.8291328333686,E01009492,Birmingham 055E,E14000563
"Corbyn Road, Birmingham",180000,2019-11-02,https://www.rightmove.co.uk/property-for-sale/property-86215934.html,52.4834972845358,-1.82649273025815,E01009475,Birmingham 055A,E14000563
"Crabourne Road, Dudley",185000,2019-09-06,https://www.rightmove.co.uk/property-for-sale/property-73823608.html,52.4783756618493,-2.09035909646397,E01009877,Dudley 020E,E14000976
"Chantrey Crescent, Great Barr, Birmingham",160000,2019-09-06,https://www.rightmove.co.uk/property-for-sale/property-83245838.html,52.5598145936056,-1.89773372868014,E01010358,Walsall 039E,E14001012
"Broadmoor Avenue, Oldbury",164950,2019-09-15,https://www.rightmove.co.uk/property-for-sale/property-61534383.html,52.4776907392336,-1.99171136751789,E01009937,Sandwell 032A,E14001016
"Corley Avenue, Northfield Birmingham, B31",149500,2019-10-25,https://www.rightmove.co.uk/property-for-sale/property-81953630.html,52.4095400223073,-1.96011738979314,E01009205,Birmingham 120A,E14000565
"Bromford Road, Hodge Hill, Birmingham, B36",180000,2019-09-06,https://www.rightmove.co.uk/property-for-sale/property-61966038.html,52.5003648062875,-1.80491928847879,E01009087,Birmingham 042C,E14000563
"Churchill Road, Birmingham, B9",185000,2019-10-13,https://www.rightmove.co.uk/property-for-sale/property-65700027.html,52.4821729902734,-1.84387324582065,E01009197,Birmingham 058C,E14000563
"Clancey Way, Halesowen",179950,2019-09-06,https://www.rightmove.co.uk/property-for-sale/property-72794440.html,52.4605881637227,-2.07192553552804,E01009863,Dudley 033E,E14000722
"Corley Avenue, Northfield Birmingham, B31",154950,2019-09-10,https://www.rightmove.co.uk/property-for-sale/property-81953630.html,52.4095400223073,-1.96011738979314,E01009205,Birmingham 120A,E14000565
"Coventry Road, Sheldon, Birmingham",189950,2019-10-27,https://www.rightmove.co.uk/property-for-sale/property-75037255.html,52.4509342831632,-1.76349561996377,E01010138,Solihull 011E,E14000931
"Crabourne Road, Dudley",185000,2019-09-06,https://www.rightmove.co.uk/property-for-sale/property-73823608.html,52.4783756618493,-2.09035909646397,E01009878,Dudley 025E,E14000976
"Burnel Road, B29",170000,2019-09-18,https://www.rightmove.co.uk/property-for-sale/property-84802790.html,52.444601933717,-1.96243991092401,E01009064,Birmingham 095B,E14000560
"Brushfield Road, Great Barr",180000,2019-09-06,https://www.rightmove.co.uk/property-for-sale/property-84057434.html,52.5409411202323,-1.90397016288662,E01009248,Birmingham 019D,E14000566
"CRADLEY HEATH, B64",160000,2019-11-02,https://www.rightmove.co.uk/property-for-sale/property-86222078.html,52.4790189179939,-2.06974712988583,E01010042,Sandwell 035F,E14000722
"Davey Road, Birmingham, West Midlands, United Kingdom, B20",190000,2019-10-09,https://www.rightmove.co.uk/property-for-sale/property-85465949.html,52.5127940100046,-1.8937168159114,E01009051,Birmingham 033A,E14000564
"Burnel Road, Birmingham, B29",140000,2019-10-29,https://www.rightmove.co.uk/property-for-sale/property-65984433.html,52.4443321866953,-1.96229301665282,E01009064,Birmingham 095B,E14000560
"Crendon Road, Rowley Regis, B65",200000,2019-09-06,https://www.rightmove.co.uk/property-for-sale/property-64635867.html,52.4946667527097,-2.06005083728005,E01010043,Sandwell 025B,E14000722
"Cattermole Grove, Birmingham",185000,2019-09-06,https://www.rightmove.co.uk/property-for-sale/property-82802408.html,52.5543378736851,-1.90630083572179,E01010360,Walsall 039G,E14001012
"Cuin Road, Smethwick, West Midlands, B66 3TU",159950,2019-10-31,https://www.rightmove.co.uk/property-for-sale/property-74301436.html,52.4912571097742,-1.95444741106274,E01010063,Sandwell 026D,E14001016
"Church Road, Northfield",185000,2019-09-09,https://www.rightmove.co.uk/property-for-sale/property-74044267.html,52.4146667231451,-1.96790503249718,E01009218,Birmingham 120D,E14000565
"Cross Farm Road, Birmingham",180000,2019-09-06,https://www.rightmove.co.uk/property-for-sale/property-82728500.html,52.4516993489998,-1.94977930625991,E01009075,Birmingham 087C,E14000560
"Buckingham Mews, Sutton Coldfield",200000,2019-10-17,https://www.rightmove.co.uk/property-for-sale/property-73990282.html,52.552819678772,-1.83359409062498,E01009468,Birmingham 004F,E14000985
"Davey Road, Birmingham, B20",180000,2019-10-01,https://www.rightmove.co.uk/property-for-sale/property-65432832.html,52.5135129364769,-1.89342037960766,E01009051,Birmingham 033A,E14000564
"Cecil Road, Selly Park, Birmingham, West Midlands, B29",199950,2019-10-17,https://www.rightmove.co.uk/property-for-sale/property-65822358.html,52.4380131227939,-1.9128724233098,E01009296,Birmingham 100E,E14000567
Clarence Road Sparkhill,179950,2019-10-09,https://www.rightmove.co.uk/property-for-sale/property-85448900.html,52.4498299375088,-1.86061431654771,E01033641,Birmingham 140G,E14000562
"Brentford Road, Kings Heath , Birmingham, B14",189950,2019-09-09,https://www.rightmove.co.uk/property-for-sale/property-61680135.html,52.4209054666772,-1.88217382240312,E01008969,Birmingham 117C,E14000567
"Dean Road, Erdington, Birmingham, B23",190000,2019-10-29,https://www.rightmove.co.uk/property-for-sale/property-66031176.html,52.5299944527202,-1.84016620429632,E01009006,Birmingham 023C,E14000561
"Brook Close, Birmingham, B33",194950,2019-09-25,https://www.rightmove.co.uk/property-for-sale/property-82870784.html,52.4884149833801,-1.80909563185608,E01009095,Birmingham 056A,E14000568
"Bristol Road South, Northfield, Birmingham, B31 2QW",179950,2019-10-21,https://www.rightmove.co.uk/property-for-sale/property-83042864.html,52.4074767620024,-1.97687717299723,E01009209,Birmingham 124D,E14000565
"Charnwood Road, Great Barr, Birmingham, West Midlands",189950,2019-09-06,https://www.rightmove.co.uk/property-for-sale/property-71126746.html,52.537452826501,-1.92918882473839,E01009235,Birmingham 016A,E14000566
"Dearmont Road, Longbridge, Birmingham, B31 4LY",170000,2019-09-06,https://www.rightmove.co.uk/property-for-sale/property-83949560.html,52.3930932948783,-1.98055839554162,E01009166,Birmingham 131A,E14000565
"Chaucer Grove, Acocks Green, Birmingham",175000,2019-09-06,https://www.rightmove.co.uk/property-for-sale/property-64691175.html,52.4408864557128,-1.82768968551177,E01009020,Birmingham 103B,E14000568
"Cecil Street, WALSALL",160000,2019-09-06,https://www.rightmove.co.uk/property-for-sale/property-71058677.html,52.5927593905858,-1.97810944291145,E01010318,Walsall 024B,E14001012
"Chester Road, Birmingham",180000,2019-09-10,https://www.rightmove.co.uk/property-for-sale/property-60916824.html,52.528972528565,-1.81732214861273,E01009005,Birmingham 025A,E14000561
"Chester Road, West Bromwich",165000,2019-09-15,https://www.rightmove.co.uk/property-for-sale/property-74141065.html,52.5442160903689,-2.00791937782239,E01010098,Sandwell 013D,E14001030
"Chestnut Road, Sidemoor, Bromsgrove, B61 8LY",175000,2019-09-09,https://www.rightmove.co.uk/property-for-sale/property-73520728.html,52.3441715552007,-2.06336878441264,E01032161,Bromsgrove 010D,E14000605
"Cuin Road, Smethwick, West Midlands, B66 3TU",165000,2019-09-25,https://www.rightmove.co.uk/property-for-sale/property-74301436.html,52.4912571097742,-1.95444741106274,E01010063,Sandwell 026D,E14001016
"Duxford Road, Birmingham",190000,2019-09-27,https://www.rightmove.co.uk/property-for-sale/property-84018350.html,52.5388836711845,-1.91753893275981,E01009247,Birmingham 016E,E14000566
"Claverdon Drive, Birmingham",150000,2019-09-29,https://www.rightmove.co.uk/property-for-sale/property-85171322.html,52.5390791713957,-1.94451983228926,E01010013,Sandwell 012C,E14001029
"Clent Villas, Taunton Road, Birmingham, West Midlands, B12",160000,2019-09-06,https://www.rightmove.co.uk/property-for-sale/property-72725587.html,52.4533532173714,-1.87605419774509,E01009399,Birmingham 083E,E14000562
"Delamere Drive, Walsall",165000,2019-10-03,https://www.rightmove.co.uk/property-for-sale/property-74473750.html,52.5557144944426,-1.95408608441974,E01009971,Sandwell 002C,E14001029
"Chipperfield Road, Birmingham",170000,2019-09-06,https://www.rightmove.co.uk/property-for-sale/property-63216864.html,52.5028795337079,-1.80343499538132,E01009083,Birmingham 038D,E14000563
"Century Way, Halesowen, B63",199950,2019-10-19,https://www.rightmove.co.uk/property-for-sale/property-85746803.html,52.4627437434262,-2.07516709753239,E01009863,Dudley 033E,E14000722
"Church Road, Erdington, Birmingham, West Midlands, B24",180000,2019-09-06,https://www.rightmove.co.uk/property-for-sale/property-80593622.html,52.5198284337515,-1.8347501906967,E01009012,Birmingham 028C,E14000561
"Druids Lane, Birmingham, West Midlands, B14",175000,2019-11-06,https://www.rightmove.co.uk/property-for-sale/property-86300804.html,52.4047299305031,-1.88897838100847,E01008978,Birmingham 121B,E14000567
"Edenhurst Road, Birmingham, B31",180000,2019-09-06,https://www.rightmove.co.uk/property-for-sale/property-64767540.html,52.388867828385,-1.97982553877648,E01009166,Birmingham 131A,E14000565
"Church Vale, Birmingham",160000,2019-10-11,https://www.rightmove.co.uk/property-for-sale/property-64473282.html,52.5102947138871,-1.91597151515054,E01009057,Birmingham 035D,E14000566
"Claremont Road, Birmingham, Smethwick, B66",170000,2019-10-03,https://www.rightmove.co.uk/property-for-sale/property-65531079.html,52.4863157079986,-1.96328821263602,E01010060,Sandwell 028E,E14001016
"Edinburgh Road, Oldbury, West Midlands, B68",180000,2019-10-09,https://www.rightmove.co.uk/property-for-sale/property-85497905.html,52.471398011056,-2.00290064699287,E01010025,Sandwell 037D,E14001016
"Claypit Lane, West Bromwich",175000,2019-09-06,https://www.rightmove.co.uk/property-for-sale/property-72395407.html,52.5247976268597,-2.01189531915368,E01032887,Sandwell 018E,E14001029
"Culmington Road, Longbridge, Birmingham, B31",165000,2019-09-06,https://www.rightmove.co.uk/property-for-sale/property-70663330.html,52.3958796199927,-1.97717708733568,E01009215,Birmingham 126E,E14000565
"Charlbury Crescent, Birmingham, B26",200000,2019-10-17,https://www.rightmove.co.uk/property-for-sale/property-85364879.html,52.4693383101871,-1.79828484738821,E01009519,Birmingham 072C,E14000568
"Clissold Street, BIRMINGHAM",185000,2019-10-01,https://www.rightmove.co.uk/property-for-sale/property-74455012.html,52.4887245659166,-1.92440689901726,E01009348,Birmingham 047A,E14000564
"Clopton Road, Sheldon, Birmingham, B33",160000,2019-09-06,https://www.rightmove.co.uk/property-for-sale/property-64033461.html,52.4702833074465,-1.7739910736413,E01009322,Birmingham 069D,E14000568
"Brushfield Road, Great Barr",185000,2019-09-09,https://www.rightmove.co.uk/property-for-sale/property-74043193.html,52.5409411202323,-1.90397016288662,E01009248,Birmingham 019D,E14000566
"Clun Close, Tividale, Oldbury",175000,2019-09-06,https://www.rightmove.co.uk/property-for-sale/property-73722097.html,52.5088707502133,-2.06021761684766,E01010081,Sandwell 022D,E14001030
"Dobbs Mill Close, Selly Park, Birmingham, B29",184950,2019-09-09,https://www.rightmove.co.uk/property-for-sale/property-84579710.html,52.4420595937703,-1.91418849617707,E01009288,Birmingham 100C,E14000567
"Clopton Road, Birmingham, B33",160000,2019-09-06,https://www.rightmove.co.uk/property-for-sale/property-72874924.html,52.4702833074465,-1.7739910736413,E01009322,Birmingham 069D,E14000568
"Crabourne Road, Dudley",170000,2019-10-17,https://www.rightmove.co.uk/property-for-sale/property-65821716.html,52.4783756618493,-2.09035909646397,E01009878,Dudley 025E,E14000976
"Effingham Road, Moseley, Birmingham B13 0DN",160000,2019-09-06,https://www.rightmove.co.uk/property-for-sale/property-81595499.html,52.4277206674505,-1.8659783394837,E01008933,Birmingham 105A,E14000567
"Bush Grove, Birmingham, B21",185000,2019-09-06,https://www.rightmove.co.uk/property-for-sale/property-83178113.html,52.5117530221118,-1.95162674919481,E01009272,Birmingham 036B,E14000566
"Dauntsey Covert, BIRMINGHAM, West Midlands",160000,2019-09-06,https://www.rightmove.co.uk/property-for-sale/property-82702607.html,52.4080686514055,-1.90308215824343,E01008979,Birmingham 121C,E14000567
"Chaucer Close, Birmingham",160000,2019-10-05,https://www.rightmove.co.uk/property-for-sale/property-65560089.html,52.5207750076429,-1.87335952749781,E01009411,Birmingham 030B,E14000561
"CRADLEY HEATH, Highland Road",174950,2019-09-06,https://www.rightmove.co.uk/property-for-sale/property-68367247.html,52.4790189179939,-2.06974712988583,E01010042,Sandwell 035F,E14000722
"Dean Road, Birmingham, B23",190000,2019-09-25,https://www.rightmove.co.uk/property-for-sale/property-65260158.html,52.5299944527202,-1.84016620429632,E01009006,Birmingham 023C,E14000561
"Ermington Crescent, Hodge Hill",179950,2019-09-25,https://www.rightmove.co.uk/property-for-sale/property-72407437.html,52.5013568327,-1.80682996672301,E01009084,Birmingham 042A,E14000563
"Calshot Road, Birmingham",164950,2019-10-11,https://www.rightmove.co.uk/property-for-sale/property-74679526.html,52.544014801375,-1.92814611910987,E01009245,Birmingham 016C,E14000566
"Cofton Park Close, Birmingham, B45",200000,2019-09-06,https://www.rightmove.co.uk/property-for-sale/property-84401648.html,52.3896785418455,-1.99496002399863,E01009163,Birmingham 129B,E14000565
"Dunard Road, Solihull, B90",180000,2019-09-25,https://www.rightmove.co.uk/property-for-sale/property-64672440.html,52.4112405302808,-1.84294730599192,E01010225,Solihull 030C,E14000931
"Crowther Road, Birmingham, B23",170000,2019-10-01,https://www.rightmove.co.uk/property-for-sale/property-65456373.html,52.5284930951058,-1.86154511732458,E01009408,Birmingham 026B,E14000561
"Brook Crescent, Stourbridge",175000,2019-10-31,https://www.rightmove.co.uk/property-for-sale/property-86080811.html,52.4486917746037,-2.11030874802326,E01009838,Dudley 037D,E14000976
"Fairlie Crescent, Birmingham, B38",200000,2019-09-15,https://www.rightmove.co.uk/property-for-sale/property-65069145.html,52.4018917054377,-1.94351540220008,E01009108,Birmingham 127A,E14000565
"Coleraine Road, Great Barr, B42",180000,2019-09-06,https://www.rightmove.co.uk/property-for-sale/property-62845245.html,52.5326845270298,-1.923299778717,E01009237,Birmingham 024A,E14000566
"DUDLEY, Churchfield Street",174950,2019-09-25,https://www.rightmove.co.uk/property-for-sale/property-79913093.html,52.5060665274444,-2.0879114557744,E01009889,Dudley 015C,E14000671
"Dean Road, Erdington",170000,2019-09-10,https://www.rightmove.co.uk/property-for-sale/property-73837303.html,52.5299944527202,-1.84016620429632,E01009006,Birmingham 023C,E14000561
"Edmonds Road, Oldbury",200000,2019-09-06,https://www.rightmove.co.uk/property-for-sale/property-73721542.html,52.4788596433415,-1.99568655934425,E01009940,Sandwell 032C,E14001016
"Dean Road, Erdington",190000,2019-09-06,https://www.rightmove.co.uk/property-for-sale/property-73837303.html,52.5299944527202,-1.84016620429632,E01009006,Birmingham 023C,E14000561
"Broughton Crescent, Birmingham, B31",180000,2019-11-04,https://www.rightmove.co.uk/property-for-sale/property-66155571.html,52.3995670548601,-1.98716938021642,E01009162,Birmingham 124A,E14000565
"Chesterfield Close, West Heath, Birmingham, B31",200000,2019-10-25,https://www.rightmove.co.uk/property-for-sale/property-74844487.html,52.404776008629,-1.96232651434659,E01009210,Birmingham 126B,E14000565
"Cleeve Road, Yardley Wood, Birmingham",180000,2019-11-06,https://www.rightmove.co.uk/property-for-sale/property-86357864.html,52.4174671377701,-1.8617454165712,E01008941,Birmingham 115C,E14000567
"Coombes Lane, Birmingham, B31",160000,2019-10-17,https://www.rightmove.co.uk/property-for-sale/property-65818674.html,52.3896766780102,-1.97835577197868,E01009168,Birmingham 131B,E14000565
"Clements Road, Yardley, Birmingham",195000,2019-10-29,https://www.rightmove.co.uk/property-for-sale/property-86042081.html,52.4696356505336,-1.81521225275617,E01008897,Birmingham 067B,E14000568
"Chaffcombe Road, Sheldon, Birmingham, B26",170000,2019-10-01,https://www.rightmove.co.uk/property-for-sale/property-63397575.html,52.4640805524124,-1.77416999174128,E01009317,Birmingham 081C,E14000568
"DENBIGH DRIVE, WEST BROMWICH, WEST MIDLANDS, B71 2RZ",190000,2019-09-06,https://www.rightmove.co.uk/property-for-sale/property-83255903.html,52.5347769549762,-2.00320004961797,E01009991,Sandwell 010A,E14001029
"Dearmont Road, Longbridge, Birmingham, B31 4LY",165000,2019-09-18,https://www.rightmove.co.uk/property-for-sale/property-83949560.html,52.3930932948783,-1.98055839554162,E01009166,Birmingham 131A,E14000565
"Firhill Croft, Druids Heath, Birmingham",155000,2019-10-15,https://www.rightmove.co.uk/property-for-sale/property-85638188.html,52.4063582201811,-1.90029297708606,E01008980,Birmingham 121D,E14000567
"DUDLEY, NETHERTON, Hadleys Close",189950,2019-10-23,https://www.rightmove.co.uk/property-for-sale/property-84266204.html,52.4880078073003,-2.07152861467573,E01009871,Dudley 018D,E14000672
"Collingdon Avenue, BIRMINGHAM",170000,2019-11-04,https://www.rightmove.co.uk/property-for-sale/property-86282339.html,52.4623799856248,-1.77815261085875,E01009314,Birmingham 069B,E14000568
"Dobbs Mill Close, Selly Park, Birmingham, B29",174950,2019-10-27,https://www.rightmove.co.uk/property-for-sale/property-85736561.html,52.4420595937703,-1.91418849617707,E01009288,Birmingham 100C,E14000567
"Buckingham Mews, Sutton Coldfield",195000,2019-09-15,https://www.rightmove.co.uk/property-for-sale/property-74137759.html,52.552819678772,-1.83359409062498,E01009468,Birmingham 004F,E14000985
"Fladbury Crescent, Birmingham, West Midlands, B29",185000,2019-09-25,https://www.rightmove.co.uk/property-for-sale/property-76725551.html,52.44046015828,-1.94596718017782,E01009295,Birmingham 099D,E14000567
"Endhill Road, Kingstanding, B44",180000,2019-10-17,https://www.rightmove.co.uk/property-for-sale/property-65793729.html,52.5562930048446,-1.88107480891047,E01009221,Birmingham 007A,E14000561
"Fordhouse Lane, Stirchley, Birmingham",199950,2019-09-06,https://www.rightmove.co.uk/property-for-sale/property-64693680.html,52.4243499976935,-1.91525216905718,E01008953,Birmingham 107A,E14000567
"DUDLEY, NETHERTON, Hadleys Close",199950,2019-09-06,https://www.rightmove.co.uk/property-for-sale/property-84266204.html,52.4880078073003,-2.07152861467573,E01009871,Dudley 018D,E14000672
"Corisande Road, Selly Oak, Birmingham, West Midlands, B29",180000,2019-10-15,https://www.rightmove.co.uk/property-for-sale/property-65492631.html,52.4437008670685,-1.95640875305196,E01009291,Birmingham 095D,E14000567
"Fox Hollies Road, Acocks Green, Birmingham, West Midlands, B27",195000,2019-09-06,https://www.rightmove.co.uk/property-for-sale/property-64003791.html,52.4463766848894,-1.83208216784205,E01009029,Birmingham 090E,E14000568
"Chestnuts Avenue, Sheldon, Birmingham",170000,2019-09-06,https://www.rightmove.co.uk/property-for-sale/property-73521430.html,52.466704151535,-1.78298839629043,E01009323,Birmingham 069E,E14000568
"Dudley Close, Rowley Regis",190000,2019-10-21,https://www.rightmove.co.uk/property-for-sale/property-85771967.html,52.4942171061499,-2.0603447991051,E01010043,Sandwell 025B,E14000722
"Dorrington Road, Birmingham, B42",180000,2019-10-15,https://www.rightmove.co.uk/property-for-sale/property-65738232.html,52.5292675096609,-1.92197905933571,E01009240,Birmingham 024C,E14000566
"Francis Road, Acocks Green",145000,2019-10-09,https://www.rightmove.co.uk/property-for-sale/property-84349532.html,52.4542635440685,-1.81571797631081,E01008890,Birmingham 089A,E14000568
"Crabourne Road, Dudley",165000,2019-11-04,https://www.rightmove.co.uk/property-for-sale/property-65821716.html,52.4783756618493,-2.09035909646397,E01009878,Dudley 025E,E14000976
"Dunard Road, Solihull, B90",190000,2019-09-06,https://www.rightmove.co.uk/property-for-sale/property-64672440.html,52.4112405302808,-1.84294730599192,E01010225,Solihull 030C,E14000931
"DUDLEY, Summerfield Road",160000,2019-09-06,https://www.rightmove.co.uk/property-for-sale/property-84410684.html,52.501128415474,-2.07891556660278,E01009887,Dudley 015A,E14000671
"Garston at Harvills Grange, Wedgewood Avenue West Bromwich B70 0FH",162500,2019-09-06,https://www.rightmove.co.uk/property-for-sale/property-84490103.html,52.5373823849826,-2.01986017173422,E01010095,Sandwell 013C,E14001030
"Dudley Road East, Oldbury, West Midlands, B69",120000,2019-09-06,https://www.rightmove.co.uk/property-for-sale/property-83962865.html,52.5088831617279,-2.02633000329893,E01010018,Sandwell 021C,E14001030
"Duxford Road, Birmingham",200000,2019-09-06,https://www.rightmove.co.uk/property-for-sale/property-84018350.html,52.5388836711845,-1.91753893275981,E01009247,Birmingham 016E,E14000566
"Duncroft Road, Birmingham",185000,2019-09-06,https://www.rightmove.co.uk/property-for-sale/property-64781475.html,52.4686130424506,-1.79475528072217,E01009519,Birmingham 072C,E14000568
"Chestnut Road, Sidemoor, Bromsgrove, B61 8LT",200000,2019-09-06,https://www.rightmove.co.uk/property-for-sale/property-83009627.html,52.3440810974783,-2.06439617829345,E01032159,Bromsgrove 010B,E14000605
"Compton Grove, HALESOWEN",185000,2019-09-06,https://www.rightmove.co.uk/property-for-sale/property-82841087.html,52.4535661044215,-2.08662934008743,E01009813,Dudley 033B,E14000722
"Claverdon Drive, Great Barr",200000,2019-10-09,https://www.rightmove.co.uk/property-for-sale/property-64547796.html,52.538809681693,-1.94496248345502,E01010013,Sandwell 012C,E14001029
"Chestnut Road, Wednesbury, WS10",160000,2019-10-13,https://www.rightmove.co.uk/property-for-sale/property-65700516.html,52.54960983345,-2.01013248901427,E01010096,Sandwell 005C,E14001030
"Corn Mill Close, Birmingham",170000,2019-09-08,https://www.rightmove.co.uk/property-for-sale/property-64898580.html,52.4400218435559,-1.98362728883759,E01008919,Birmingham 095A,E14000560
"Dyas Road, Great Barr, Birmingham",160000,2019-11-02,https://www.rightmove.co.uk/property-for-sale/property-66109158.html,52.544082766327,-1.89821256539155,E01009228,Birmingham 013D,E14000566
"Crendon Road, Rowley Regis, B65",198000,2019-09-28,https://www.rightmove.co.uk/property-for-sale/property-64635867.html,52.4946667527097,-2.06005083728005,E01010043,Sandwell 025B,E14000722
"Curlews Close, Birmingham, B23",170000,2019-10-17,https://www.rightmove.co.uk/property-for-sale/property-65804709.html,52.5411694681819,-1.8620950987279,E01009136,Birmingham 014E,E14000561
"Edinburgh Road, Oldbury, B68",189950,2019-09-15,https://www.rightmove.co.uk/property-for-sale/property-84686477.html,52.4717576462892,-2.00039804327011,E01010025,Sandwell 037D,E14001016
"Colemeadow Road, Birmingham",179950,2019-10-27,https://www.rightmove.co.uk/property-for-sale/property-85996538.html,52.4238603573948,-1.87084280499341,E01008938,Birmingham 111D,E14000567
"Geraldine Road, Birmingham, West Midlands, B25",160000,2019-10-29,https://www.rightmove.co.uk/property-for-sale/property-86039810.html,52.4641680797752,-1.8259798653316,E01008883,Birmingham 078A,E14000568
"Cotteridge Road, Birmingham, B30",190000,2019-10-11,https://www.rightmove.co.uk/property-for-sale/property-65656524.html,52.416895094067,-1.92541154000129,E01008957,Birmingham 112E,E14000567
"Dayhouse Bank, Romsley, Halesowen, B62",185000,2019-09-25,https://www.rightmove.co.uk/property-for-sale/property-74322100.html,52.4022539432211,-2.05051788803431,E01032169,Bromsgrove 002D,E14000605
"Eagle Grove, Smiths Wood, B36",125000,2019-09-21,https://www.rightmove.co.uk/property-for-sale/property-74207644.html,52.5039401340138,-1.74656425783812,E01010234,Solihull 004B,E14000812
"Cottage Lane, Sutton Coldfield",200000,2019-10-19,https://www.rightmove.co.uk/property-for-sale/property-65847525.html,52.5299668467854,-1.76896810411534,E01009441,Birmingham 021B,E14000985
"Edgewood Road, Rednal, Birmingham, West Midlands, B45",159950,2019-11-06,https://www.rightmove.co.uk/property-for-sale/property-66219639.html,52.3895887405409,-2.00098457336932,E01009169,Birmingham 129D,E14000565
"Chipstead Road, Birmingham",160000,2019-09-06,https://www.rightmove.co.uk/property-for-sale/property-64759212.html,52.5356764912993,-1.85444605632304,E01009403,Birmingham 020A,E14000561
"Ermington Crescent, Birmingham",180000,2019-09-06,https://www.rightmove.co.uk/property-for-sale/property-82938065.html,52.5013568327,-1.80682996672301,E01009084,Birmingham 042A,E14000563
"Crankhall Lane, Wednesbury, WS10",175000,2019-10-31,https://www.rightmove.co.uk/property-for-sale/property-81435710.html,52.5562626389077,-2.00526668777388,E01010092,Sandwell 003E,E14001029
"Crows Nest Close, Walmley",200000,2019-09-06,https://www.rightmove.co.uk/property-for-sale/property-58496556.html,52.5541085761237,-1.79553702271423,E01009434,Birmingham 012A,E14000985
"Charlbury Crescent, Birmingham",190000,2019-09-18,https://www.rightmove.co.uk/property-for-sale/property-65135742.html,52.4686160927567,-1.79652170564626,E01009519,Birmingham 072C,E14000568
"East Meadway, Tile Cross, Birmingham, B33",160000,2019-09-18,https://www.rightmove.co.uk/property-for-sale/property-65107350.html,52.4817702349409,-1.7636249763538,E01009301,Birmingham 057D,E14000563
"Edmonds Road, Oldbury",195000,2019-09-06,https://www.rightmove.co.uk/property-for-sale/property-64513857.html,52.4774212737802,-1.99642285340399,E01009940,Sandwell 032C,E14001016
"Curbar Road, Great Barr",180000,2019-10-09,https://www.rightmove.co.uk/property-for-sale/property-85467149.html,52.5334808417149,-1.90560801186506,E01009234,Birmingham 019A,E14000566
"Edwinstowe Close, Brierley Hill",167000,2019-09-06,https://www.rightmove.co.uk/property-for-sale/property-70444441.html,52.478455461855,-2.10272707674719,E01009864,Dudley 025A,E14000976
"Eachway, Rubery, Birmingham, B45 9DQ",190000,2019-09-18,https://www.rightmove.co.uk/property-for-sale/property-65131518.html,52.3903064986132,-2.01847073640671,E01032126,Bromsgrove 003A,E14000605
"Gladys Road,  Smethwick, B67",127500,2019-10-23,https://www.rightmove.co.uk/property-for-sale/property-80216630.html,52.4786766196687,-1.97198148456358,E01009921,Sandwell 034A,E14001016
"Chestnut Road, Sidemoor, Bromsgrove, B61 8LY",189950,2019-09-06,https://www.rightmove.co.uk/property-for-sale/property-73520728.html,52.3441715552007,-2.06336878441264,E01032161,Bromsgrove 010D,E14000605
"Farm Road, Rowley Regis, B65",150000,2019-10-17,https://www.rightmove.co.uk/property-for-sale/property-65628390.html,52.4846005966615,-2.05473583879974,E01010038,Sandwell 029A,E14000722
"Elizabeth Road, Halesowen",200000,2019-09-06,https://www.rightmove.co.uk/property-for-sale/property-84343592.html,52.4458489858369,-2.06425082772549,E01009732,Dudley 039A,E14000722
"Eastfield Road, Birmingham, B9",170000,2019-09-09,https://www.rightmove.co.uk/property-for-sale/property-63878763.html,52.4810641139955,-1.82252667997347,E01009477,Birmingham 055C,E14000563
"Effingham Road, Birmingham, B13",160000,2019-10-09,https://www.rightmove.co.uk/property-for-sale/property-63338112.html,52.4277206674505,-1.8659783394837,E01008933,Birmingham 105A,E14000567
"Dean Road, Erdington, Birmingham, B23",160000,2019-10-13,https://www.rightmove.co.uk/property-for-sale/property-64342779.html,52.5299944527202,-1.84016620429632,E01009006,Birmingham 023C,E14000561
"Church Road, Netherton, West Midlands, DY2",179950,2019-09-06,https://www.rightmove.co.uk/property-for-sale/property-60587343.html,52.4898848910382,-2.08758454312848,E01009873,Dudley 020B,E14000672
"Farrington Road, Erdington, Birmingham",165000,2019-10-31,https://www.rightmove.co.uk/property-for-sale/property-74092771.html,52.5261652551966,-1.86995396291843,E01009126,Birmingham 026A,E14000561
"Edward Street, DUDLEY",110000,2019-10-23,https://www.rightmove.co.uk/property-for-sale/property-65165592.html,52.5105574166575,-2.09322479712789,E01009881,Dudley 011C,E14000671
"Elmfield Avenue, Birmingham",190000,2019-10-31,https://www.rightmove.co.uk/property-for-sale/property-75116548.html,52.5234616151845,-1.80054291699139,E01009105,Birmingham 025E,E14000561
"Doncaster Way, Bromford, Birmingham, West Midlands, B36",170000,2019-10-03,https://www.rightmove.co.uk/property-for-sale/property-85322108.html,52.504611153436,-1.81815962520641,E01009082,Birmingham 044A,E14000563
"Frankley Beeches Road, Northfield, Birmingham, B31",177500,2019-09-28,https://www.rightmove.co.uk/property-for-sale/property-73989475.html,52.4108048488672,-1.98922433346581,E01009173,Birmingham 119B,E14000565
"Edenhurst Road, Birmingham, B31",160000,2019-09-06,https://www.rightmove.co.uk/property-for-sale/property-60599364.html,52.3938122261358,-1.9789415897007,E01009166,Birmingham 131A,E14000565
"Ferndale Avenue, Great Barr",190000,2019-10-09,https://www.rightmove.co.uk/property-for-sale/property-85447007.html,52.5387145412929,-1.93464198551301,E01010008,Sandwell 011A,E14001029
"Glenavon Road, Birmingham, B14",185000,2019-09-06,https://www.rightmove.co.uk/property-for-sale/property-64767297.html,52.4100270815686,-1.88176172258008,E01008943,Birmingham 117B,E14000567
"Fladbury Crescent, Birmingham, West Midlands, B29",185000,2019-09-25,https://www.rightmove.co.uk/property-for-sale/property-76725551.html,52.44046015828,-1.94596718017782,E01009284,Birmingham 096A,E14000567
"Dreghorn Road, Birmingham, West Midlands, B36",170000,2019-10-05,https://www.rightmove.co.uk/property-for-sale/property-65551995.html,52.5055732983615,-1.80150774885409,E01009083,Birmingham 038D,E14000563
"Churchill Road, Birmingham, B9",179950,2019-10-29,https://www.rightmove.co.uk/property-for-sale/property-65700027.html,52.4821729902734,-1.84387324582065,E01009197,Birmingham 058C,E14000563
"Church Hill, Coleshill, Birmingham",180000,2019-10-19,https://www.rightmove.co.uk/property-for-sale/property-85737407.html,52.4997104216783,-1.7057844383669,E01031021,North Warwickshire 006C,E14000854
"Church Road, Northfield, Birmingham, West Midlands, B31",170000,2019-09-25,https://www.rightmove.co.uk/property-for-sale/property-74336329.html,52.4146667231451,-1.96790503249718,E01009218,Birmingham 120D,E14000565
"Francis Road, Birmingham, B27",160000,2019-09-06,https://www.rightmove.co.uk/property-for-sale/property-64483710.html,52.4542635440685,-1.81571797631081,E01008890,Birmingham 089A,E14000568
"Elmbridge Road, Birmingham",200000,2019-10-09,https://www.rightmove.co.uk/property-for-sale/property-81655517.html,52.534459873986,-1.89395948855726,E01009227,Birmingham 013C,E14000566
"Dean Road, Erdington, Birmingham, B23",165000,2019-09-09,https://www.rightmove.co.uk/property-for-sale/property-64342779.html,52.5299944527202,-1.84016620429632,E01009006,Birmingham 023C,E14000561
"Clarence Court, Oldbury",145000,2019-09-10,https://www.rightmove.co.uk/property-for-sale/property-64943973.html,52.4774212966525,-1.99730624781398,E01009940,Sandwell 032C,E14001016
"Geoffrey Road, Sparkhill, Birmingham, West Midlands, B11",160000,2019-10-13,https://www.rightmove.co.uk/property-for-sale/property-74744611.html,52.4458819583896,-1.86724748426508,E01009392,Birmingham 140E,E14000562
"Doris Road, Coleshill, Birmingham, B46",200000,2019-09-18,https://www.rightmove.co.uk/property-for-sale/property-65167116.html,52.5056531523575,-1.70957530432725,E01031020,North Warwickshire 006B,E14000854
"Epsom Grove, KIngstanding, Birmingham",160000,2019-09-28,https://www.rightmove.co.uk/property-for-sale/property-65232312.html,52.5421663790173,-1.86916953386776,E01009122,Birmingham 014B,E14000561
"Claverdon Drive, Great Barr, B43",160000,2019-10-29,https://www.rightmove.co.uk/property-for-sale/property-64956102.html,52.5390791713957,-1.94451983228926,E01010013,Sandwell 012C,E14001029
"Falcon Lodge Crescent, Sutton Coldfield",190000,2019-09-06,https://www.rightmove.co.uk/property-for-sale/property-83251163.html,52.5665919284558,-1.788397560477,E01009445,Birmingham 005A,E14000985
"George Road, Oldbury",165000,2019-09-25,https://www.rightmove.co.uk/property-for-sale/property-65322723.html,52.4777809126666,-2.00157600246977,E01009939,Sandwell 032B,E14001016
"Clancey Way, Halesowen",169950,2019-10-17,https://www.rightmove.co.uk/property-for-sale/property-72794440.html,52.4605881637227,-2.07192553552804,E01009863,Dudley 033E,E14000722
"Effingham Road, Birmingham, B13",165000,2019-09-06,https://www.rightmove.co.uk/property-for-sale/property-63338112.html,52.4277206674505,-1.8659783394837,E01008933,Birmingham 105A,E14000567
"Farm Road, Rowley Regis, B65",160000,2019-10-09,https://www.rightmove.co.uk/property-for-sale/property-65628390.html,52.4846005966615,-2.05473583879974,E01010038,Sandwell 029A,E14000722
"Duncumb Road, Sutton Coldfield",185000,2019-10-09,https://www.rightmove.co.uk/property-for-sale/property-84627554.html,52.565783639431,-1.78884403062604,E01009445,Birmingham 005A,E14000985
"Ermington Crescent, Birmingham",185000,2019-09-06,https://www.rightmove.co.uk/property-for-sale/property-73282129.html,52.5013568327,-1.80682996672301,E01009084,Birmingham 042A,E14000563
"Clay Lane, Oldbury",170000,2019-10-25,https://www.rightmove.co.uk/property-for-sale/property-65937267.html,52.4881184316723,-2.0148305644541,E01010002,Sandwell 030B,E14001016
"Frankley Beeches Road, Northfield, Birmingham, B31",180000,2019-09-06,https://www.rightmove.co.uk/property-for-sale/property-73989475.html,52.4108048488672,-1.98922433346581,E01009173,Birmingham 119B,E14000565
"Flaxhall Street, Walsall",130000,2019-10-23,https://www.rightmove.co.uk/property-for-sale/property-85737824.html,52.5787372882027,-2.00261322697421,E01010366,Walsall 031D,E14001012
"DUDLEY, DUDLEY WOOD, Racemeadow Crescent",199500,2019-09-06,https://www.rightmove.co.uk/property-for-sale/property-84318902.html,52.4757722960908,-2.08534803213831,E01009878,Dudley 025E,E14000976
"Glebefields Road, Tipton",170000,2019-10-25,https://www.rightmove.co.uk/property-for-sale/property-85896803.html,52.5375525370021,-2.05170587942811,E01009978,Sandwell 014A,E14001030
"Frodesley Road, Birmingham, B26",200000,2019-09-10,https://www.rightmove.co.uk/property-for-sale/property-64954050.html,52.4679603024257,-1.78165741613962,E01009322,Birmingham 069D,E14000568
"Goodway Road, Birmingham",185000,2019-10-21,https://www.rightmove.co.uk/property-for-sale/property-85825544.html,52.5400303630851,-1.89040749684016,E01009229,Birmingham 017B,E14000566
"Duxford Road, Birmingham",170000,2019-09-06,https://www.rightmove.co.uk/property-for-sale/property-83796248.html,52.5388836711845,-1.91753893275981,E01009247,Birmingham 016E,E14000566
"Fairway Road, Oldbury, West Midlands, B68 8BE",160000,2019-09-08,https://www.rightmove.co.uk/property-for-sale/property-74015017.html,52.4770605326245,-2.01674078586621,E01010001,Sandwell 037A,E14001016
"Coldbath Road, Moseley, Birmingham, B13 0AQ",170000,2019-10-27,https://www.rightmove.co.uk/property-for-sale/property-85982900.html,52.4327633317841,-1.87346433912334,E01008932,Birmingham 111A,E14000562
"Gorsemoor Road, Cannock, Staffordshire, WS12",195000,2019-09-10,https://www.rightmove.co.uk/property-for-sale/property-84615779.html,52.6905688909089,-1.98841753151643,E01029378,Cannock Chase 010D,E14000618
"Eachway, Rednal, Birmingham, B45",190000,2019-09-18,https://www.rightmove.co.uk/property-for-sale/property-65131527.html,52.3903064986132,-2.01847073640671,E01032126,Bromsgrove 003A,E14000605
"Defford Drive, Oldbury",179950,2019-10-19,https://www.rightmove.co.uk/property-for-sale/property-65848665.html,52.4883890500261,-2.00201825214668,E01009941,Sandwell 032D,E14001016
"Glendene Crescent, Kings Norton, Birmingham, West Midlands, B38",170000,2019-09-06,https://www.rightmove.co.uk/property-for-sale/property-62972991.html,52.3953319188389,-1.95013689708469,E01009112,Birmingham 127C,E14000565
"Fern Road, Erdington, Birmingham",169950,2019-09-06,https://www.rightmove.co.uk/property-for-sale/property-82692260.html,52.5211775286909,-1.83518727313037,E01009012,Birmingham 028C,E14000561
"Graham Road, Birmingham, B25",190000,2019-10-27,https://www.rightmove.co.uk/property-for-sale/property-65988168.html,52.4605633001049,-1.82010700302115,E01008887,Birmingham 078C,E14000568
"Goldby Drive, Wednesbury",180000,2019-09-28,https://www.rightmove.co.uk/property-for-sale/property-74092753.html,52.5612940844388,-2.02650919922483,E01010089,Sandwell 001E,E14001030
"Dovercourt Road, Birmingham",180000,2019-09-06,https://www.rightmove.co.uk/property-for-sale/property-71402860.html,52.4553614529149,-1.77480318167096,E01009319,Birmingham 081E,E14000568
"Druids Avenue, Rowley Regis, West Midlands",169950,2019-10-23,https://www.rightmove.co.uk/property-for-sale/property-85837082.html,52.4865851113057,-2.03750854182122,E01009936,Sandwell 027C,E14000722
"Coles Lane, West Bromwich, B71",170000,2019-09-06,https://www.rightmove.co.uk/property-for-sale/property-62609559.html,52.5377433980019,-2.00777074025984,E01010099,Sandwell 013E,E14001030
"Coppice Lane, Brierley Hill, DY5 1DE",199950,2019-10-19,https://www.rightmove.co.uk/property-for-sale/property-60963222.html,52.4755756881361,-2.10610655832423,E01009866,Dudley 025C,E14000976
"Emery Street, Walsall",145000,2019-10-01,https://www.rightmove.co.uk/property-for-sale/property-73681924.html,52.5778356241513,-1.97457514177024,E01010370,Walsall 030B,E14001012
"Grange Farm Drive, Birmingham",175000,2019-11-02,https://www.rightmove.co.uk/property-for-sale/property-72329173.html,52.4000055513741,-1.94733913929744,E01009111,Birmingham 127B,E14000565
"Dyas Road, Great Barr, Birmingham",180000,2019-11-06,https://www.rightmove.co.uk/property-for-sale/property-66217716.html,52.5423663501249,-1.88892719692178,E01009229,Birmingham 017B,E14000566
"Gibbs Hill Road, Birmingham, B31",180000,2019-10-15,https://www.rightmove.co.uk/property-for-sale/property-65721123.html,52.3920985112286,-1.95792878358526,E01009217,Birmingham 131E,E14000565
"Fairbourne Avenue, Birmingham, West Midlands, B44",170000,2019-09-25,https://www.rightmove.co.uk/property-for-sale/property-84757265.html,52.5501927639209,-1.89465904512648,E01009225,Birmingham 013B,E14000566
"Gibbs Hill Road, West Heath, Birmingham, B31",200000,2019-09-08,https://www.rightmove.co.uk/property-for-sale/property-74004988.html,52.3929070339165,-1.95631155839076,E01009217,Birmingham 131E,E14000565
"Farrington Road, Erdington, Birmingham",170000,2019-09-11,https://www.rightmove.co.uk/property-for-sale/property-74092771.html,52.5261652551966,-1.86995396291843,E01009126,Birmingham 026A,E14000561
"HALESOWEN, Belbroughton Road",189950,2019-10-11,https://www.rightmove.co.uk/property-for-sale/property-84678200.html,52.441533941906,-2.06395029918213,E01009810,Dudley 043C,E14000722
"Green Lane, Winson Green, Birmingham, B21 0DE",195000,2019-09-06,https://www.rightmove.co.uk/property-for-sale/property-58121274.html,52.5066293072541,-1.95295831339109,E01009351,Birmingham 036E,E14000564
"Glenwood Road, Kings Norton, Birmingham, West Midlands, B38",195000,2019-10-31,https://www.rightmove.co.uk/property-for-sale/property-74255548.html,52.39865774783,-1.94895740715884,E01009112,Birmingham 127C,E14000565
"HALESOWEN, Stourbridge Road",179950,2019-10-09,https://www.rightmove.co.uk/property-for-sale/property-85439174.html,52.4545673097579,-2.06779531624558,E01009737,Dudley 034D,E14000722
"Effingham Road, Birmingham, B13",180000,2019-10-31,https://www.rightmove.co.uk/property-for-sale/property-66052176.html,52.4278098997948,-1.86538980077681,E01008933,Birmingham 105A,E14000567
"Coventry Road, Yardley, Birmingham",175000,2019-09-06,https://www.rightmove.co.uk/property-for-sale/property-62131815.html,52.4610815793224,-1.80671168771997,E01008885,Birmingham 076A,E14000568
"Hamstead Road, Great Barr, Birmingham",190000,2019-09-21,https://www.rightmove.co.uk/property-for-sale/property-82072379.html,52.5345804021522,-1.9368594520692,E01010010,Sandwell 011B,E14001029
"Fairbourne Avenue, Kingstanding, Birmingham, West Midlands, B44",170000,2019-09-15,https://www.rightmove.co.uk/property-for-sale/property-84757265.html,52.5501927639209,-1.89465904512648,E01009225,Birmingham 013B,E14000566
"Crabourne Road, Dudley",165000,2019-11-04,https://www.rightmove.co.uk/property-for-sale/property-65821716.html,52.4783756618493,-2.09035909646397,E01009877,Dudley 020E,E14000976
"Eastfield Road, Birmingham, B9",175000,2019-09-06,https://www.rightmove.co.uk/property-for-sale/property-63878763.html,52.4810641139955,-1.82252667997347,E01009477,Birmingham 055C,E14000563
"Hamstead Road, Great Barr, Birmingham, West Midlands",180000,2019-09-06,https://www.rightmove.co.uk/property-for-sale/property-72975499.html,52.5412392899563,-1.95026750945555,E01010014,Sandwell 012D,E14001029
"Gospel Farm Road, Acocks Green, Birmingham, West Midlands, B27",195000,2019-11-04,https://www.rightmove.co.uk/property-for-sale/property-75255640.html,52.4323425214584,-1.82536964036279,E01009024,Birmingham 103D,E14000568
"Gretton Crescent, Aldridge",179950,2019-10-11,https://www.rightmove.co.uk/property-for-sale/property-85526660.html,52.6014630329823,-1.93381076962969,E01010244,Walsall 015D,E14000531
"Goldstar Way, Birmingham",165000,2019-09-15,https://www.rightmove.co.uk/property-for-sale/property-73683160.html,52.4773870100631,-1.77483811619045,E01009303,Birmingham 057E,E14000563
"Esher Road, West Bromwich, B71",185000,2019-09-11,https://www.rightmove.co.uk/property-for-sale/property-82673909.html,52.5304614246879,-1.98978542593278,E01009947,Sandwell 017A,E14001029
"Hancox Street, Oldbury, West Midlands, B68",165000,2019-09-06,https://www.rightmove.co.uk/property-for-sale/property-83377250.html,52.480477874449,-2.00290129841722,E01009939,Sandwell 032B,E14001016
"Ferndale Road, Oldbury, B68",160000,2019-10-23,https://www.rightmove.co.uk/property-for-sale/property-65871015.html,52.4760716575887,-2.01659317677272,E01010001,Sandwell 037A,E14001016
"Grove Lane, Birmingham, West Midlands, B20",164950,2019-10-21,https://www.rightmove.co.uk/property-for-sale/property-65896668.html,52.5104845608401,-1.93158950167738,E01009270,Birmingham 034C,E14000566
"Elmbridge Road, Birmingham",200000,2019-10-09,https://www.rightmove.co.uk/property-for-sale/property-81655517.html,52.534459873986,-1.89395948855726,E01009232,Birmingham 022D,E14000566
"Davey Road, Birmingham, West Midlands, United Kingdom, B20",180000,2019-10-31,https://www.rightmove.co.uk/property-for-sale/property-85465949.html,52.5127940100046,-1.8937168159114,E01009051,Birmingham 033A,E14000564
"Frances Road, Erdington",180000,2019-10-01,https://www.rightmove.co.uk/property-for-sale/property-58917006.html,52.5211200235079,-1.86038922519443,E01009412,Birmingham 030C,E14000561
"Fladbury Crescent, Selly Oak, Birmingham, West Midlands, B29",185000,2019-09-18,https://www.rightmove.co.uk/property-for-sale/property-76725551.html,52.44046015828,-1.94596718017782,E01009295,Birmingham 099D,E14000567
"Hansons Bridge Road, Erdington, Birmingham",200000,2019-10-15,https://www.rightmove.co.uk/property-for-sale/property-85631102.html,52.5257906787187,-1.79566836882998,E01009105,Birmingham 025E,E14000561
"Fordbridge Road, Birmingham",170000,2019-09-21,https://www.rightmove.co.uk/property-for-sale/property-74232400.html,52.4888597185171,-1.75740163567647,E01010147,Solihull 005B,E14000812
"Foxhunt Road, Halesowen",175000,2019-10-13,https://www.rightmove.co.uk/property-for-sale/property-85573526.html,52.4434185987931,-2.06969068223029,E01009810,Dudley 043C,E14000722
"Fairfield Drive, Halesowen, West Midlands, B62",179950,2019-09-06,https://www.rightmove.co.uk/property-for-sale/property-63479055.html,52.4722940050164,-2.02674958862723,E01009798,Dudley 026E,E14000722
"Fairfield Drive, Halesowen, West Midlands, B62",175000,2019-10-01,https://www.rightmove.co.uk/property-for-sale/property-63479055.html,52.4722940050164,-2.02674958862723,E01009798,Dudley 026E,E14000722
"Frankley Beeches Road, Birmingham",185000,2019-10-13,https://www.rightmove.co.uk/property-for-sale/property-85572119.html,52.4107139862031,-1.98143281526993,E01009207,Birmingham 124B,E14000565
"Greenstead Road, Moseley, Birmingham",185000,2019-09-18,https://www.rightmove.co.uk/property-for-sale/property-65101740.html,52.4388581223814,-1.85726548436393,E01009044,Birmingham 097C,E14000562
"Haslucks Green Road, Shirley, Solihull",200000,2019-10-09,https://www.rightmove.co.uk/property-for-sale/property-65624301.html,52.4039601574114,-1.84414901912262,E01010219,Solihull 021B,E14000931
"Claverdon Drive, Great Barr, B43",170000,2019-09-10,https://www.rightmove.co.uk/property-for-sale/property-64956102.html,52.5390791713957,-1.94451983228926,E01010013,Sandwell 012C,E14001029
"Falcon Lodge Crescent, Sutton Coldfield",165000,2019-09-18,https://www.rightmove.co.uk/property-for-sale/property-61686849.html,52.5664070927146,-1.78559537015003,E01009445,Birmingham 005A,E14000985
"Falcon Lodge Crescent, Sutton Coldfield",185000,2019-09-18,https://www.rightmove.co.uk/property-for-sale/property-56811942.html,52.5665919284558,-1.788397560477,E01009445,Birmingham 005A,E14000985
"HALESOWEN, Pippin Avenue",199950,2019-09-06,https://www.rightmove.co.uk/property-for-sale/property-84122375.html,52.46371774002,-2.09577490361869,E01009870,Dudley 032D,E14000976
"Dawes Avenue, West Bromwich",160000,2019-10-09,https://www.rightmove.co.uk/property-for-sale/property-74660032.html,52.5096951946121,-1.99892521077919,E01009989,Sandwell 019C,E14001029
"Hales Gardens, Birmingham, B23",190000,2019-10-11,https://www.rightmove.co.uk/property-for-sale/property-65655324.html,52.5403654499249,-1.86652090306375,E01009136,Birmingham 014E,E14000561
"Frankley Beeches Road, Northfield, Birmingham, B31",170000,2019-10-31,https://www.rightmove.co.uk/property-for-sale/property-74843353.html,52.4108048488672,-1.98922433346581,E01009173,Birmingham 119B,E14000565
"Falmouth Road, Birmingham",200000,2019-11-06,https://www.rightmove.co.uk/property-for-sale/property-66219552.html,52.4940696992338,-1.80362151518803,E01009089,Birmingham 042D,E14000563
"Geraldine Road, Birmingham",150000,2019-11-04,https://www.rightmove.co.uk/property-for-sale/property-86131205.html,52.4640775302695,-1.8255386576826,E01008883,Birmingham 078A,E14000568
"George Road, Birmingham",175000,2019-09-06,https://www.rightmove.co.uk/property-for-sale/property-63910680.html,52.5153645832612,-1.85878648020959,E01009414,Birmingham 030E,E14000561
"Falfield Grove, Birmingham, B31",169950,2019-09-06,https://www.rightmove.co.uk/property-for-sale/property-84369482.html,52.394981261277,-1.98085149299203,E01009163,Birmingham 129B,E14000565
"Hamstead Road, Great Barr, Birmingham",160000,2019-09-25,https://www.rightmove.co.uk/property-for-sale/property-82072379.html,52.5345804021522,-1.9368594520692,E01010010,Sandwell 011B,E14001029
"Coneygree Road, Tipton, West Midlands, DY4",165000,2019-10-19,https://www.rightmove.co.uk/property-for-sale/property-65443134.html,52.5182205463703,-2.05964097970679,E01010071,Sandwell 016F,E14001030
"Dudley Port, Tipton, West Midlands",175000,2019-09-06,https://www.rightmove.co.uk/property-for-sale/property-71011273.html,52.5231691174585,-2.05080459169418,E01010069,Sandwell 016E,E14001030
"Gressel Lane, Birmingham",180000,2019-10-17,https://www.rightmove.co.uk/property-for-sale/property-65817825.html,52.4825019013827,-1.76995279521713,E01009300,Birmingham 057C,E14000563
"DUDLEY, OAKHAM, Tansley Hill Avenue",179950,2019-09-06,https://www.rightmove.co.uk/property-for-sale/property-81601688.html,52.5043739403983,-2.06374718393724,E01009894,Dudley 010D,E14000671
"Green Street, Smethwick, Birmingham, West Midlands, B67",185000,2019-09-06,https://www.rightmove.co.uk/property-for-sale/property-63579711.html,52.4935105975409,-1.97447601073927,E01010054,Sandwell 028A,E14001016
"Corisande Road, Selly Oak",180000,2019-09-06,https://www.rightmove.co.uk/property-for-sale/property-73355581.html,52.4437008670685,-1.95640875305196,E01009291,Birmingham 095D,E14000567
"Hamilton Road, Smethwick",188000,2019-10-09,https://www.rightmove.co.uk/property-for-sale/property-65624985.html,52.478498761743,-1.98199364456167,E01009922,Sandwell 034B,E14001016
"Duncumb Road, Sutton Coldfield",195000,2019-09-10,https://www.rightmove.co.uk/property-for-sale/property-84627554.html,52.565783639431,-1.78884403062604,E01009445,Birmingham 005A,E14000985
"Greswolde Drive, Birmingham, B24",180000,2019-10-17,https://www.rightmove.co.uk/property-for-sale/property-65773572.html,52.5245799510273,-1.82559419695049,E01009008,Birmingham 028A,E14000561
"Gibson Road, Handsworth, Birmingham, West Midlands, B20",200000,2019-11-06,https://www.rightmove.co.uk/property-for-sale/property-74869570.html,52.5082264057701,-1.91509143509565,E01009057,Birmingham 035D,E14000566
"Corisande Road, Selly Oak, Birmingham, West Midlands, B29",190000,2019-10-03,https://www.rightmove.co.uk/property-for-sale/property-65492631.html,52.4437008670685,-1.95640875305196,E01009291,Birmingham 095D,E14000567
"Farlands Grove, Birmingham",200000,2019-10-29,https://www.rightmove.co.uk/property-for-sale/property-75095440.html,52.5373653226653,-1.93331708515632,E01010008,Sandwell 011A,E14001029
"Hillstone Road, Shard End, Birmingham",150000,2019-09-06,https://www.rightmove.co.uk/property-for-sale/property-64105812.html,52.4911281550047,-1.76784594039937,E01009297,Birmingham 057A,E14000563
"Harvest Road, Smethwick, West Midlands, B67",170000,2019-09-06,https://www.rightmove.co.uk/property-for-sale/property-83117840.html,52.4823653167615,-1.98920728556235,E01009938,Sandwell 031A,E14001016
"Eachway Farm Close, Birmingham, B45",160000,2019-09-18,https://www.rightmove.co.uk/property-for-sale/property-65171256.html,52.3904872384532,-2.01097672109334,E01009164,Birmingham 130B,E14000565
"Glastonbury Road, Yardley Wood, Birmingham, West Midlands, B14",175000,2019-10-31,https://www.rightmove.co.uk/property-for-sale/property-74095213.html,52.4172938991485,-1.86748021186389,E01008941,Birmingham 115C,E14000567
"Gospel Farm Road, Acocks Green",194900,2019-09-25,https://www.rightmove.co.uk/property-for-sale/property-85047830.html,52.4323425214584,-1.82536964036279,E01009024,Birmingham 103D,E14000568
"Fern Road, Birmingham",160000,2019-10-13,https://www.rightmove.co.uk/property-for-sale/property-74098729.html,52.5211775286909,-1.83518727313037,E01009012,Birmingham 028C,E14000561
"Glenwood Road, Kings Norton",195000,2019-10-31,https://www.rightmove.co.uk/property-for-sale/property-74279044.html,52.39865774783,-1.94895740715884,E01009112,Birmingham 127C,E14000565
"Edgbaston Road, Smethwick",180000,2019-10-17,https://www.rightmove.co.uk/property-for-sale/property-74808322.html,52.4855070596264,-1.96476147504745,E01010059,Sandwell 026A,E14001016
"Farnborough Road, Birmingham",160000,2019-10-03,https://www.rightmove.co.uk/property-for-sale/property-85362755.html,52.5201859725988,-1.77845139584834,E01009097,Birmingham 029B,E14000561
"Hopstone Road, Birmingham",150000,2019-10-29,https://www.rightmove.co.uk/property-for-sale/property-65629329.html,52.4393000395103,-1.97024096914895,E01009502,Birmingham 101C,E14000565
"Horseley Heath, Tipton",160000,2019-09-15,https://www.rightmove.co.uk/property-for-sale/property-63694197.html,52.5268577455087,-2.04388117945611,E01009980,Sandwell 016D,E14001030
"Horseley Heath, Tipton, DY4",165000,2019-09-06,https://www.rightmove.co.uk/property-for-sale/property-80872334.html,52.5268577455087,-2.04388117945611,E01009980,Sandwell 016D,E14001030
"Griffin Street, Dudley, DY2",190000,2019-10-07,https://www.rightmove.co.uk/property-for-sale/property-85428140.html,52.488988253545,-2.08434279320755,E01009872,Dudley 020A,E14000672
"Cromwell Drive, Dudley, DY2 7EU",164950,2019-10-05,https://www.rightmove.co.uk/property-for-sale/property-74521708.html,52.5052715546609,-2.06625302066166,E01009894,Dudley 010D,E14000671
"Howard Road, Great Barr, B43",200000,2019-09-06,https://www.rightmove.co.uk/property-for-sale/property-62165310.html,52.5416003732659,-1.95395327948765,E01010014,Sandwell 012D,E14001029
"Grindleford Road, Great Barr",160000,2019-09-06,https://www.rightmove.co.uk/property-for-sale/property-66175561.html,52.5360847852518,-1.90176929995504,E01009248,Birmingham 019D,E14000566
"Edgware Road, Erdington, Birmingham",180000,2019-09-06,https://www.rightmove.co.uk/property-for-sale/property-60254886.html,52.5285780966672,-1.85741755187934,E01009408,Birmingham 026B,E14000561
